{"version":1,"provinces":[{"name":"北京市","timezone":"Asia/Shanghai","cities":[{"name":"市辖区","latitude":39.9996,"longitude":116.369,"districts":[{"name":"东城区","latitude":39.9996,"longitude":116.369},{"name":"西城区","latitude":39.9996,"longitude":116.369},{"name":"朝阳区","latitude":39.9996,"longitude":116.369},{"name":"丰台区","latitude":39.9996,"longitude":116.369},{"name":"石景山区","latitude":39.9996,"longitude":116.369},{"name":"海淀区","latitude":39.9996,"longitude":116.369},{"name":"门头沟区","latitude":39.9996,"longitude":116.369},{"name":"房山区","latitude":39.9996,"longitude":116.369},{"name":"通州区","latitude":39.9996,"longitude":116.369},{"name":"顺义区","latitude":39.9996,"longitude":116.369},{"name":"昌平区","latitude":39.9996,"longitude":116.369},{"name":"大兴区","latitude":39.9996,"longitude":116.369},{"name":"怀柔区","latitude":39.9996,"longitude":116.369},{"name":"平谷区","latitude":39.9996,"longitude":116.369},{"name":"密云区","latitude":39.9996,"longitude":116.369},{"name":"延庆区","latitude":39.9996,"longitude":116.369}]}]},{"name":"天津市","timezone":"Asia/Shanghai","cities":[{"name":"市辖区","latitude":39.3378,"longitude":117.4064,"districts":[{"name":"和平区","latitude":39.3378,"longitude":117.4064},{"name":"河东区","latitude":39.3378,"longitude":117.4064},{"name":"河西区","latitude":39.3378,"longitude":117.4064},{"name":"南开区","latitude":39.3378,"longitude":117.4064},{"name":"河北区","latitude":39.3378,"longitude":117.4064},{"name":"红桥区","latitude":39.3378,"longitude":117.4064},{"name":"东丽区","latitude":39.3378,"longitude":117.4064},{"name":"西青区","latitude":39.3378,"longitude":117.4064},{"name":"津南区","latitude":39.3378,"longitude":117.4064},{"name":"北辰区","latitude":39.3378,"longitude":117.4064},{"name":"武清区","latitude":39.3378,"longitude":117.4064},{"name":"宝坻区","latitude":39.3378,"longitude":117.4064},{"name":"滨海新区","latitude":39.3378,"longitude":117.4064},{"name":"宁河区","latitude":39.3378,"longitude":117.4064},{"name":"静海区","latitude":39.3378,"longitude":117.4064},{"name":"蓟州区","latitude":39.3378,"longitude":117.4064}]}]},{"name":"河北省","timezone":"Asia/Shanghai","cities":[{"name":"石家庄市","latitude":35.0664,"longitude":105.0048,"districts":[{"name":"长安区","latitude":35.0664,"longitude":105.0048},{"name":"桥西区","latitude":35.0664,"longitude":105.0048},{"name":"新华区","latitude":35.0664,"longitude":105.0048},{"name":"井陉矿区","latitude":35.0664,"longitude":105.0048},{"name":"裕华区","latitude":35.0664,"longitude":105.0048},{"name":"藁城区","latitude":35.0664,"longitude":105.0048},{"name":"鹿泉区","latitude":35.0664,"longitude":105.0048},{"name":"栾城区","latitude":35.0664,"longitude":105.0048},{"name":"井陉县","latitude":35.0664,"longitude":105.0048},{"name":"正定县","latitude":35.0664,"longitude":105.0048},{"name":"行唐县","latitude":35.0664,"longitude":105.0048},{"name":"灵寿县","latitude":35.0664,"longitude":105.0048},{"name":"高邑县","latitude":35.0664,"longitude":105.0048},{"name":"深泽县","latitude":35.0664,"longitude":105.0048},{"name":"赞皇县","latitude":35.0664,"longitude":105.0048},{"name":"无极县","latitude":35.0664,"longitude":105.0048},{"name":"平山县","latitude":35.0664,"longitude":105.0048},{"name":"元氏县","latitude":35.0664,"longitude":105.0048},{"name":"赵县","latitude":35.0664,"longitude":105.0048},{"name":"石家庄高新技术产业开发区","latitude":35.0664,"longitude":105.0048},{"name":"石家庄循环化工园区","latitude":35.0664,"longitude":105.0048},{"name":"辛集市","latitude":35.0664,"longitude":105.0048},{"name":"晋州市","latitude":35.0664,"longitude":105.0048},{"name":"新乐市","latitude":35.0664,"longitude":105.0048}]},{"name":"唐山市","latitude":35.0596,"longitude":105.0154,"districts":[{"name":"路南区","latitude":35.0596,"longitude":105.0154},{"name":"路北区","latitude":35.0596,"longitude":105.0154},{"name":"古冶区","latitude":35.0596,"longitude":105.0154},{"name":"开平区","latitude":35.0596,"longitude":105.0154},{"name":"丰南区","latitude":35.0596,"longitude":105.0154},{"name":"丰润区","latitude":35.0596,"longitude":105.0154},{"name":"曹妃甸区","latitude":35.0596,"longitude":105.0154},{"name":"滦南县","latitude":35.0596,"longitude":105.0154},{"name":"乐亭县","latitude":35.0596,"longitude":105.0154},{"name":"迁西县","latitude":35.0596,"longitude":105.0154},{"name":"玉田县","latitude":35.0596,"longitude":105.0154},{"name":"河北唐山芦台经济开发区","latitude":35.0596,"longitude":105.0154},{"name":"唐山市汉沽管理区","latitude":35.0596,"longitude":105.0154},{"name":"唐山高新技术产业开发区","latitude":35.0596,"longitude":105.0154},{"name":"河北唐山海港经济开发区","latitude":35.0596,"longitude":105.0154},{"name":"遵化市","latitude":35.0596,"longitude":105.0154},{"name":"迁安市","latitude":35.0596,"longitude":105.0154},{"name":"滦州市","latitude":35.0596,"longitude":105.0154}]},{"name":"秦皇岛市","latitude":35.0774,"longitude":105.0038,"districts":[{"name":"海港区","latitude":35.0774,"longitude":105.0038},{"name":"山海关区","latitude":35.0774,"longitude":105.0038},{"name":"北戴河区","latitude":35.0774,"longitude":105.0038},{"name":"抚宁区","latitude":35.0774,"longitude":105.0038},{"name":"青龙满族自治县","latitude":35.0774,"longitude":105.0038},{"name":"昌黎县","latitude":35.0774,"longitude":105.0038},{"name":"卢龙县","latitude":35.0774,"longitude":105.0038},{"name":"秦皇岛市经济技术开发区","latitude":35.0774,"longitude":105.0038},{"name":"北戴河新区","latitude":35.0774,"longitude":105.0038}]},{"name":"邯郸市","latitude":35.0454,"longitude":104.976,"districts":[{"name":"邯山区","latitude":35.0454,"longitude":104.976},{"name":"丛台区","latitude":35.0454,"longitude":104.976},{"name":"复兴区","latitude":35.0454,"longitude":104.976},{"name":"峰峰矿区","latitude":35.0454,"longitude":104.976},{"name":"肥乡区","latitude":35.0454,"longitude":104.976},{"name":"永年区","latitude":35.0454,"longitude":104.976},{"name":"临漳县","latitude":35.0454,"longitude":104.976},{"name":"成安县","latitude":35.0454,"longitude":104.976},{"name":"大名县","latitude":35.0454,"longitude":104.976},{"name":"涉县","latitude":35.0454,"longitude":104.976},{"name":"磁县","latitude":35.0454,"longitude":104.976},{"name":"邱县","latitude":35.0454,"longitude":104.976},{"name":"鸡泽县","latitude":35.0454,"longitude":104.976},{"name":"广平县","latitude":35.0454,"longitude":104.976},{"name":"馆陶县","latitude":35.0454,"longitude":104.976},{"name":"魏县","latitude":35.0454,"longitude":104.976},{"name":"曲周县","latitude":35.0454,"longitude":104.976},{"name":"邯郸经济技术开发区","latitude":35.0454,"longitude":104.976},{"name":"邯郸冀南新区","latitude":35.0454,"longitude":104.976},{"name":"武安市","latitude":35.0454,"longitude":104.976}]},{"name":"邢台市","latitude":35.009,"longitude":104.9506,"districts":[{"name":"襄都区","latitude":35.009,"longitude":104.9506},{"name":"信都区","latitude":35.009,"longitude":104.9506},{"name":"任泽区","latitude":35.009,"longitude":104.9506},{"name":"南和区","latitude":35.009,"longitude":104.9506},{"name":"临城县","latitude":35.009,"longitude":104.9506},{"name":"内丘县","latitude":35.009,"longitude":104.9506},{"name":"柏乡县","latitude":35.009,"longitude":104.9506},{"name":"隆尧县","latitude":35.009,"longitude":104.9506},{"name":"宁晋县","latitude":35.009,"longitude":104.9506},{"name":"巨鹿县","latitude":35.009,"longitude":104.9506},{"name":"新河县","latitude":35.009,"longitude":104.9506},{"name":"广宗县","latitude":35.009,"longitude":104.9506},{"name":"平乡县","latitude":35.009,"longitude":104.9506},{"name":"威县","latitude":35.009,"longitude":104.9506},{"name":"清河县","latitude":35.009,"longitude":104.9506},{"name":"临西县","latitude":35.009,"longitude":104.9506},{"name":"河北邢台经济开发区","latitude":35.009,"longitude":104.9506},{"name":"南宫市","latitude":35.009,"longitude":104.9506},{"name":"沙河市","latitude":35.009,"longitude":104.9506}]},{"name":"保定市","latitude":34.9898,"longitude":104.9152,"districts":[{"name":"竞秀区","latitude":34.9898,"longitude":104.9152},{"name":"莲池区","latitude":34.9898,"longitude":104.9152},{"name":"满城区","latitude":34.9898,"longitude":104.9152},{"name":"清苑区","latitude":34.9898,"longitude":104.9152},{"name":"徐水区","latitude":34.9898,"longitude":104.9152},{"name":"涞水县","latitude":34.9898,"longitude":104.9152},{"name":"阜平县","latitude":34.9898,"longitude":104.9152},{"name":"定兴县","latitude":34.9898,"longitude":104.9152},{"name":"唐县","latitude":34.9898,"longitude":104.9152},{"name":"高阳县","latitude":34.9898,"longitude":104.9152},{"name":"容城县","latitude":34.9898,"longitude":104.9152},{"name":"涞源县","latitude":34.9898,"longitude":104.9152},{"name":"望都县","latitude":34.9898,"longitude":104.9152},{"name":"安新县","latitude":34.9898,"longitude":104.9152},{"name":"易县","latitude":34.9898,"longitude":104.9152},{"name":"曲阳县","latitude":34.9898,"longitude":104.9152},{"name":"蠡县","latitude":34.9898,"longitude":104.9152},{"name":"顺平县","latitude":34.9898,"longitude":104.9152},{"name":"博野县","latitude":34.9898,"longitude":104.9152},{"name":"雄县","latitude":34.9898,"longitude":104.9152},{"name":"保定高新技术产业开发区","latitude":34.9898,"longitude":104.9152},{"name":"保定白沟新城","latitude":34.9898,"longitude":104.9152},{"name":"涿州市","latitude":34.9898,"longitude":104.9152},{"name":"定州市","latitude":34.9898,"longitude":104.9152},{"name":"安国市","latitude":34.9898,"longitude":104.9152},{"name":"高碑店市","latitude":34.9898,"longitude":104.9152}]},{"name":"张家口市","latitude":35.0006,"longitude":104.9772,"districts":[{"name":"桥东区","latitude":35.0006,"longitude":104.9772},{"name":"桥西区","latitude":35.0006,"longitude":104.9772},{"name":"宣化区","latitude":35.0006,"longitude":104.9772},{"name":"下花园区","latitude":35.0006,"longitude":104.9772},{"name":"万全区","latitude":35.0006,"longitude":104.9772},{"name":"崇礼区","latitude":35.0006,"longitude":104.9772},{"name":"张北县","latitude":35.0006,"longitude":104.9772},{"name":"康保县","latitude":35.0006,"longitude":104.9772},{"name":"沽源县","latitude":35.0006,"longitude":104.9772},{"name":"尚义县","latitude":35.0006,"longitude":104.9772},{"name":"蔚县","latitude":35.0006,"longitude":104.9772},{"name":"阳原县","latitude":35.0006,"longitude":104.9772},{"name":"怀安县","latitude":35.0006,"longitude":104.9772},{"name":"怀来县","latitude":35.0006,"longitude":104.9772},{"name":"涿鹿县","latitude":35.0006,"longitude":104.9772},{"name":"赤城县","latitude":35.0006,"longitude":104.9772},{"name":"张家口经济开发区","latitude":35.0006,"longitude":104.9772},{"name":"张家口市察北管理区","latitude":35.0006,"longitude":104.9772},{"name":"张家口市塞北管理区","latitude":35.0006,"longitude":104.9772}]},{"name":"承德市","latitude":34.9952,"longitude":105.0472,"districts":[{"name":"双桥区","latitude":34.9952,"longitude":105.0472},{"name":"双滦区","latitude":34.9952,"longitude":105.0472},{"name":"鹰手营子矿区","latitude":34.9952,"longitude":105.0472},{"name":"承德县","latitude":34.9952,"longitude":105.0472},{"name":"兴隆县","latitude":34.9952,"longitude":105.0472},{"name":"滦平县","latitude":34.9952,"longitude":105.0472},{"name":"隆化县","latitude":34.9952,"longitude":105.0472},{"name":"丰宁满族自治县","latitude":34.9952,"longitude":105.0472},{"name":"宽城满族自治县","latitude":34.9952,"longitude":105.0472},{"name":"围场满族蒙古族自治县","latitude":34.9952,"longitude":105.0472},{"name":"承德高新技术产业开发区","latitude":34.9952,"longitude":105.0472},{"name":"平泉市","latitude":34.9952,"longitude":105.0472}]},{"name":"沧州市","latitude":34.9512,"longitude":105.0572,"districts":[{"name":"新华区","latitude":34.9512,"longitude":105.0572},{"name":"运河区","latitude":34.9512,"longitude":105.0572},{"name":"沧县","latitude":34.9512,"longitude":105.0572},{"name":"青县","latitude":34.9512,"longitude":105.0572},{"name":"东光县","latitude":34.9512,"longitude":105.0572},{"name":"海兴县","latitude":34.9512,"longitude":105.0572},{"name":"盐山县","latitude":34.9512,"longitude":105.0572},{"name":"肃宁县","latitude":34.9512,"longitude":105.0572},{"name":"南皮县","latitude":34.9512,"longitude":105.0572},{"name":"吴桥县","latitude":34.9512,"longitude":105.0572},{"name":"献县","latitude":34.9512,"longitude":105.0572},{"name":"孟村回族自治县","latitude":34.9512,"longitude":105.0572},{"name":"河北沧州经济开发区","latitude":34.9512,"longitude":105.0572},{"name":"沧州高新技术产业开发区","latitude":34.9512,"longitude":105.0572},{"name":"沧州渤海新区","latitude":34.9512,"longitude":105.0572},{"name":"泊头市","latitude":34.9512,"longitude":105.0572},{"name":"任丘市","latitude":34.9512,"longitude":105.0572},{"name":"黄骅市","latitude":34.9512,"longitude":105.0572},{"name":"河间市","latitude":34.9512,"longitude":105.0572}]},{"name":"廊坊市","latitude":34.9626,"longitude":104.9886,"districts":[{"name":"安次区","latitude":34.9626,"longitude":104.9886},{"name":"广阳区","latitude":34.9626,"longitude":104.9886},{"name":"固安县","latitude":34.9626,"longitude":104.9886},{"name":"永清县","latitude":34.9626,"longitude":104.9886},{"name":"香河县","latitude":34.9626,"longitude":104.9886},{"name":"大城县","latitude":34.9626,"longitude":104.9886},{"name":"文安县","latitude":34.9626,"longitude":104.9886},{"name":"大厂回族自治县","latitude":34.9626,"longitude":104.9886},{"name":"廊坊经济技术开发区","latitude":34.9626,"longitude":104.9886},{"name":"霸州市","latitude":34.9626,"longitude":104.9886},{"name":"三河市","latitude":34.9626,"longitude":104.9886}]},{"name":"衡水市","latitude":34.9786,"longitude":104.9998,"districts":[{"name":"桃城区","latitude":34.9786,"longitude":104.9998},{"name":"冀州区","latitude":34.9786,"longitude":104.9998},{"name":"枣强县","latitude":34.9786,"longitude":104.9998},{"name":"武邑县","latitude":34.9786,"longitude":104.9998},{"name":"武强县","latitude":34.9786,"longitude":104.9998},{"name":"饶阳县","latitude":34.9786,"longitude":104.9998},{"name":"安平县","latitude":34.9786,"longitude":104.9998},{"name":"故城县","latitude":34.9786,"longitude":104.9998},{"name":"景县","latitude":34.9786,"longitude":104.9998},{"name":"阜城县","latitude":34.9786,"longitude":104.9998},{"name":"河北衡水高新技术产业开发区","latitude":34.9786,"longitude":104.9998},{"name":"衡水滨湖新区","latitude":34.9786,"longitude":104.9998},{"name":"深州市","latitude":34.9786,"longitude":104.9998}]}]},{"name":"山西省","timezone":"Asia/Shanghai","cities":[{"name":"太原市","latitude":35.0948,"longitude":104.9618,"districts":[{"name":"小店区","latitude":35.0948,"longitude":104.9618},{"name":"迎泽区","latitude":35.0948,"longitude":104.9618},{"name":"杏花岭区","latitude":35.0948,"longitude":104.9618},{"name":"尖草坪区","latitude":35.0948,"longitude":104.9618},{"name":"万柏林区","latitude":35.0948,"longitude":104.9618},{"name":"晋源区","latitude":35.0948,"longitude":104.9618},{"name":"清徐县","latitude":35.0948,"longitude":104.9618},{"name":"阳曲县","latitude":35.0948,"longitude":104.9618},{"name":"娄烦县","latitude":35.0948,"longitude":104.9618},{"name":"山西转型综合改革示范区","latitude":35.0948,"longitude":104.9618},{"name":"古交市","latitude":35.0948,"longitude":104.9618}]},{"name":"大同市","latitude":35.083,"longitude":104.9884,"districts":[{"name":"新荣区","latitude":35.083,"longitude":104.9884},{"name":"平城区","latitude":35.083,"longitude":104.9884},{"name":"云冈区","latitude":35.083,"longitude":104.9884},{"name":"云州区","latitude":35.083,"longitude":104.9884},{"name":"阳高县","latitude":35.083,"longitude":104.9884},{"name":"天镇县","latitude":35.083,"longitude":104.9884},{"name":"广灵县","latitude":35.083,"longitude":104.9884},{"name":"灵丘县","latitude":35.083,"longitude":104.9884},{"name":"浑源县","latitude":35.083,"longitude":104.9884},{"name":"左云县","latitude":35.083,"longitude":104.9884},{"name":"山西大同经济开发区","latitude":35.083,"longitude":104.9884}]},{"name":"阳泉市","latitude":34.962,"longitude":104.9582,"districts":[{"name":"城区","latitude":34.962,"longitude":104.9582},{"name":"矿区","latitude":34.962,"longitude":104.9582},{"name":"郊区","latitude":34.962,"longitude":104.9582},{"name":"平定县","latitude":34.962,"longitude":104.9582},{"name":"盂县","latitude":34.962,"longitude":104.9582}]},{"name":"长治市","latitude":35.0036,"longitude":105.0484,"districts":[{"name":"潞州区","latitude":35.0036,"longitude":105.0484},{"name":"上党区","latitude":35.0036,"longitude":105.0484},{"name":"屯留区","latitude":35.0036,"longitude":105.0484},{"name":"潞城区","latitude":35.0036,"longitude":105.0484},{"name":"襄垣县","latitude":35.0036,"longitude":105.0484},{"name":"平顺县","latitude":35.0036,"longitude":105.0484},{"name":"黎城县","latitude":35.0036,"longitude":105.0484},{"name":"壶关县","latitude":35.0036,"longitude":105.0484},{"name":"长子县","latitude":35.0036,"longitude":105.0484},{"name":"武乡县","latitude":35.0036,"longitude":105.0484},{"name":"沁县","latitude":35.0036,"longitude":105.0484},{"name":"沁源县","latitude":35.0036,"longitude":105.0484}]},{"name":"晋城市","latitude":34.953,"longitude":104.9894,"districts":[{"name":"城区","latitude":34.953,"longitude":104.9894},{"name":"沁水县","latitude":34.953,"longitude":104.9894},{"name":"阳城县","latitude":34.953,"longitude":104.9894},{"name":"陵川县","latitude":34.953,"longitude":104.9894},{"name":"泽州县","latitude":34.953,"longitude":104.9894},{"name":"高平市","latitude":34.953,"longitude":104.9894}]},{"name":"朔州市","latitude":34.9574,"longitude":105.0182,"districts":[{"name":"朔城区","latitude":34.9574,"longitude":105.0182},{"name":"平鲁区","latitude":34.9574,"longitude":105.0182},{"name":"山阴县","latitude":34.9574,"longitude":105.0182},{"name":"应县","latitude":34.9574,"longitude":105.0182},{"name":"右玉县","latitude":34.9574,"longitude":105.0182},{"name":"山西朔州经济开发区","latitude":34.9574,"longitude":105.0182},{"name":"怀仁市","latitude":34.9574,"longitude":105.0182}]},{"name":"晋中市","latitude":35.0396,"longitude":104.909,"districts":[{"name":"榆次区","latitude":35.0396,"longitude":104.909},{"name":"太谷区","latitude":35.0396,"longitude":104.909},{"name":"榆社县","latitude":35.0396,"longitude":104.909},{"name":"左权县","latitude":35.0396,"longitude":104.909},{"name":"和顺县","latitude":35.0396,"longitude":104.909},{"name":"昔阳县","latitude":35.0396,"longitude":104.909},{"name":"寿阳县","latitude":35.0396,"longitude":104.909},{"name":"祁县","latitude":35.0396,"longitude":104.909},{"name":"平遥县","latitude":35.0396,"longitude":104.909},{"name":"灵石县","latitude":35.0396,"longitude":104.909},{"name":"介休市","latitude":35.0396,"longitude":104.909}]},{"name":"运城市","latitude":35.0596,"longitude":104.9918,"districts":[{"name":"盐湖区","latitude":35.0596,"longitude":104.9918},{"name":"临猗县","latitude":35.0596,"longitude":104.9918},{"name":"万荣县","latitude":35.0596,"longitude":104.9918},{"name":"闻喜县","latitude":35.0596,"longitude":104.9918},{"name":"稷山县","latitude":35.0596,"longitude":104.9918},{"name":"新绛县","latitude":35.0596,"longitude":104.9918},{"name":"绛县","latitude":35.0596,"longitude":104.9918},{"name":"垣曲县","latitude":35.0596,"longitude":104.9918},{"name":"夏县","latitude":35.0596,"longitude":104.9918},{"name":"平陆县","latitude":35.0596,"longitude":104.9918},{"name":"芮城县","latitude":35.0596,"longitude":104.9918},{"name":"永济市","latitude":35.0596,"longitude":104.9918},{"name":"河津市","latitude":35.0596,"longitude":104.9918}]},{"name":"忻州市","latitude":34.9232,"longitude":105.0386,"districts":[{"name":"忻府区","latitude":34.9232,"longitude":105.0386},{"name":"定襄县","latitude":34.9232,"longitude":105.0386},{"name":"五台县","latitude":34.9232,"longitude":105.0386},{"name":"代县","latitude":34.9232,"longitude":105.0386},{"name":"繁峙县","latitude":34.9232,"longitude":105.0386},{"name":"宁武县","latitude":34.9232,"longitude":105.0386},{"name":"静乐县","latitude":34.9232,"longitude":105.0386},{"name":"神池县","latitude":34.9232,"longitude":105.0386},{"name":"五寨县","latitude":34.9232,"longitude":105.0386},{"name":"岢岚县","latitude":34.9232,"longitude":105.0386},{"name":"河曲县","latitude":34.9232,"longitude":105.0386},{"name":"保德县","latitude":34.9232,"longitude":105.0386},{"name":"偏关县","latitude":34.9232,"longitude":105.0386},{"name":"五台山风景名胜区","latitude":34.9232,"longitude":105.0386},{"name":"原平市","latitude":34.9232,"longitude":105.0386}]},{"name":"临汾市","latitude":34.9336,"longitude":105.0664,"districts":[{"name":"尧都区","latitude":34.9336,"longitude":105.0664},{"name":"曲沃县","latitude":34.9336,"longitude":105.0664},{"name":"翼城县","latitude":34.9336,"longitude":105.0664},{"name":"襄汾县","latitude":34.9336,"longitude":105.0664},{"name":"洪洞县","latitude":34.9336,"longitude":105.0664},{"name":"古县","latitude":34.9336,"longitude":105.0664},{"name":"安泽县","latitude":34.9336,"longitude":105.0664},{"name":"浮山县","latitude":34.9336,"longitude":105.0664},{"name":"吉县","latitude":34.9336,"longitude":105.0664},{"name":"乡宁县","latitude":34.9336,"longitude":105.0664},{"name":"大宁县","latitude":34.9336,"longitude":105.0664},{"name":"隰县","latitude":34.9336,"longitude":105.0664},{"name":"永和县","latitude":34.9336,"longitude":105.0664},{"name":"蒲县","latitude":34.9336,"longitude":105.0664},{"name":"汾西县","latitude":34.9336,"longitude":105.0664},{"name":"侯马市","latitude":34.9336,"longitude":105.0664},{"name":"霍州市","latitude":34.9336,"longitude":105.0664}]},{"name":"吕梁市","latitude":35.044,"longitude":105.0504,"districts":[{"name":"离石区","latitude":35.044,"longitude":105.0504},{"name":"文水县","latitude":35.044,"longitude":105.0504},{"name":"交城县","latitude":35.044,"longitude":105.0504},{"name":"兴县","latitude":35.044,"longitude":105.0504},{"name":"临县","latitude":35.044,"longitude":105.0504},{"name":"柳林县","latitude":35.044,"longitude":105.0504},{"name":"石楼县","latitude":35.044,"longitude":105.0504},{"name":"岚县","latitude":35.044,"longitude":105.0504},{"name":"方山县","latitude":35.044,"longitude":105.0504},{"name":"中阳县","latitude":35.044,"longitude":105.0504},{"name":"交口县","latitude":35.044,"longitude":105.0504},{"name":"孝义市","latitude":35.044,"longitude":105.0504},{"name":"汾阳市","latitude":35.044,"longitude":105.0504}]}]},{"name":"内蒙古自治区","timezone":"Asia/Shanghai","cities":[{"name":"呼和浩特市","latitude":35.076,"longitude":105.073,"districts":[{"name":"新城区","latitude":35.076,"longitude":105.073},{"name":"回民区","latitude":35.076,"longitude":105.073},{"name":"玉泉区","latitude":35.076,"longitude":105.073},{"name":"赛罕区","latitude":35.076,"longitude":105.073},{"name":"土默特左旗","latitude":35.076,"longitude":105.073},{"name":"托克托县","latitude":35.076,"longitude":105.073},{"name":"和林格尔县","latitude":35.076,"longitude":105.073},{"name":"清水河县","latitude":35.076,"longitude":105.073},{"name":"武川县","latitude":35.076,"longitude":105.073},{"name":"呼和浩特经济技术开发区","latitude":35.076,"longitude":105.073}]},{"name":"包头市","latitude":35.0876,"longitude":105.0838,"districts":[{"name":"东河区","latitude":35.0876,"longitude":105.0838},{"name":"昆都仑区","latitude":35.0876,"longitude":105.0838},{"name":"青山区","latitude":35.0876,"longitude":105.0838},{"name":"石拐区","latitude":35.0876,"longitude":105.0838},{"name":"白云鄂博矿区","latitude":35.0876,"longitude":105.0838},{"name":"九原区","latitude":35.0876,"longitude":105.0838},{"name":"土默特右旗","latitude":35.0876,"longitude":105.0838},{"name":"固阳县","latitude":35.0876,"longitude":105.0838},{"name":"达尔罕茂明安联合旗","latitude":35.0876,"longitude":105.0838},{"name":"包头稀土高新技术产业开发区","latitude":35.0876,"longitude":105.0838}]},{"name":"乌海市","latitude":34.9124,"longitude":105.0628,"districts":[{"name":"海勃湾区","latitude":34.9124,"longitude":105.0628},{"name":"海南区","latitude":34.9124,"longitude":105.0628},{"name":"乌达区","latitude":34.9124,"longitude":105.0628}]},{"name":"赤峰市","latitude":34.9158,"longitude":104.9668,"districts":[{"name":"红山区","latitude":34.9158,"longitude":104.9668},{"name":"元宝山区","latitude":34.9158,"longitude":104.9668},{"name":"松山区","latitude":34.9158,"longitude":104.9668},{"name":"阿鲁科尔沁旗","latitude":34.9158,"longitude":104.9668},{"name":"巴林左旗","latitude":34.9158,"longitude":104.9668},{"name":"巴林右旗","latitude":34.9158,"longitude":104.9668},{"name":"林西县","latitude":34.9158,"longitude":104.9668},{"name":"克什克腾旗","latitude":34.9158,"longitude":104.9668},{"name":"翁牛特旗","latitude":34.9158,"longitude":104.9668},{"name":"喀喇沁旗","latitude":34.9158,"longitude":104.9668},{"name":"宁城县","latitude":34.9158,"longitude":104.9668},{"name":"敖汉旗","latitude":34.9158,"longitude":104.9668}]},{"name":"通辽市","latitude":35.0254,"longitude":105.0544,"districts":[{"name":"科尔沁区","latitude":35.0254,"longitude":105.0544},{"name":"科尔沁左翼中旗","latitude":35.0254,"longitude":105.0544},{"name":"科尔沁左翼后旗","latitude":35.0254,"longitude":105.0544},{"name":"开鲁县","latitude":35.0254,"longitude":105.0544},{"name":"库伦旗","latitude":35.0254,"longitude":105.0544},{"name":"奈曼旗","latitude":35.0254,"longitude":105.0544},{"name":"扎鲁特旗","latitude":35.0254,"longitude":105.0544},{"name":"通辽经济技术开发区","latitude":35.0254,"longitude":105.0544},{"name":"霍林郭勒市","latitude":35.0254,"longitude":105.0544}]},{"name":"鄂尔多斯市","latitude":35.0136,"longitude":105.097,"districts":[{"name":"东胜区","latitude":35.0136,"longitude":105.097},{"name":"康巴什区","latitude":35.0136,"longitude":105.097},{"name":"达拉特旗","latitude":35.0136,"longitude":105.097},{"name":"准格尔旗","latitude":35.0136,"longitude":105.097},{"name":"鄂托克前旗","latitude":35.0136,"longitude":105.097},{"name":"鄂托克旗","latitude":35.0136,"longitude":105.097},{"name":"杭锦旗","latitude":35.0136,"longitude":105.097},{"name":"乌审旗","latitude":35.0136,"longitude":105.097},{"name":"伊金霍洛旗","latitude":35.0136,"longitude":105.097}]},{"name":"呼伦贝尔市","latitude":34.9782,"longitude":104.9504,"districts":[{"name":"海拉尔区","latitude":34.9782,"longitude":104.9504},{"name":"扎赉诺尔区","latitude":34.9782,"longitude":104.9504},{"name":"阿荣旗","latitude":34.9782,"longitude":104.9504},{"name":"莫力达瓦达斡尔族自治旗","latitude":34.9782,"longitude":104.9504},{"name":"鄂伦春自治旗","latitude":34.9782,"longitude":104.9504},{"name":"鄂温克族自治旗","latitude":34.9782,"longitude":104.9504},{"name":"陈巴尔虎旗","latitude":34.9782,"longitude":104.9504},{"name":"新巴尔虎左旗","latitude":34.9782,"longitude":104.9504},{"name":"新巴尔虎右旗","latitude":34.9782,"longitude":104.9504},{"name":"满洲里市","latitude":34.9782,"longitude":104.9504},{"name":"牙克石市","latitude":34.9782,"longitude":104.9504},{"name":"扎兰屯市","latitude":34.9782,"longitude":104.9504},{"name":"额尔古纳市","latitude":34.9782,"longitude":104.9504},{"name":"根河市","latitude":34.9782,"longitude":104.9504}]},{"name":"巴彦淖尔市","latitude":35.0052,"longitude":104.9454,"districts":[{"name":"临河区","latitude":35.0052,"longitude":104.9454},{"name":"五原县","latitude":35.0052,"longitude":104.9454},{"name":"磴口县","latitude":35.0052,"longitude":104.9454},{"name":"乌拉特前旗","latitude":35.0052,"longitude":104.9454},{"name":"乌拉特中旗","latitude":35.0052,"longitude":104.9454},{"name":"乌拉特后旗","latitude":35.0052,"longitude":104.9454},{"name":"杭锦后旗","latitude":35.0052,"longitude":104.9454}]},{"name":"乌兰察布市","latitude":35.059,"longitude":105.0888,"districts":[{"name":"集宁区","latitude":35.059,"longitude":105.0888},{"name":"卓资县","latitude":35.059,"longitude":105.0888},{"name":"化德县","latitude":35.059,"longitude":105.0888},{"name":"商都县","latitude":35.059,"longitude":105.0888},{"name":"兴和县","latitude":35.059,"longitude":105.0888},{"name":"凉城县","latitude":35.059,"longitude":105.0888},{"name":"察哈尔右翼前旗","latitude":35.059,"longitude":105.0888},{"name":"察哈尔右翼中旗","latitude":35.059,"longitude":105.0888},{"name":"察哈尔右翼后旗","latitude":35.059,"longitude":105.0888},{"name":"四子王旗","latitude":35.059,"longitude":105.0888},{"name":"丰镇市","latitude":35.059,"longitude":105.0888}]},{"name":"兴安盟","latitude":35.0794,"longitude":105.0726,"districts":[{"name":"乌兰浩特市","latitude":35.0794,"longitude":105.0726},{"name":"阿尔山市","latitude":35.0794,"longitude":105.0726},{"name":"科尔沁右翼前旗","latitude":35.0794,"longitude":105.0726},{"name":"科尔沁右翼中旗","latitude":35.0794,"longitude":105.0726},{"name":"扎赉特旗","latitude":35.0794,"longitude":105.0726},{"name":"突泉县","latitude":35.0794,"longitude":105.0726}]},{"name":"锡林郭勒盟","latitude":35.0164,"longitude":104.9136,"districts":[{"name":"二连浩特市","latitude":35.0164,"longitude":104.9136},{"name":"锡林浩特市","latitude":35.0164,"longitude":104.9136},{"name":"阿巴嘎旗","latitude":35.0164,"longitude":104.9136},{"name":"苏尼特左旗","latitude":35.0164,"longitude":104.9136},{"name":"苏尼特右旗","latitude":35.0164,"longitude":104.9136},{"name":"东乌珠穆沁旗","latitude":35.0164,"longitude":104.9136},{"name":"西乌珠穆沁旗","latitude":35.0164,"longitude":104.9136},{"name":"太仆寺旗","latitude":35.0164,"longitude":104.9136},{"name":"镶黄旗","latitude":35.0164,"longitude":104.9136},{"name":"正镶白旗","latitude":35.0164,"longitude":104.9136},{"name":"正蓝旗","latitude":35.0164,"longitude":104.9136},{"name":"多伦县","latitude":35.0164,"longitude":104.9136},{"name":"乌拉盖管理区管委会","latitude":35.0164,"longitude":104.9136}]},{"name":"阿拉善盟","latitude":34.9486,"longitude":104.9602,"districts":[{"name":"阿拉善左旗","latitude":34.9486,"longitude":104.9602},{"name":"阿拉善右旗","latitude":34.9486,"longitude":104.9602},{"name":"额济纳旗","latitude":34.9486,"longitude":104.9602},{"name":"内蒙古阿拉善高新技术产业开发区","latitude":34.9486,"longitude":104.9602}]}]},{"name":"辽宁省","timezone":"Asia/Shanghai","cities":[{"name":"沈阳市","latitude":35.0926,"longitude":105.0962,"districts":[{"name":"和平区","latitude":35.0926,"longitude":105.0962},{"name":"沈河区","latitude":35.0926,"longitude":105.0962},{"name":"大东区","latitude":35.0926,"longitude":105.0962},{"name":"皇姑区","latitude":35.0926,"longitude":105.0962},{"name":"铁西区","latitude":35.0926,"longitude":105.0962},{"name":"苏家屯区","latitude":35.0926,"longitude":105.0962},{"name":"浑南区","latitude":35.0926,"longitude":105.0962},{"name":"沈北新区","latitude":35.0926,"longitude":105.0962},{"name":"于洪区","latitude":35.0926,"longitude":105.0962},{"name":"辽中区","latitude":35.0926,"longitude":105.0962},{"name":"康平县","latitude":35.0926,"longitude":105.0962},{"name":"法库县","latitude":35.0926,"longitude":105.0962},{"name":"新民市","latitude":35.0926,"longitude":105.0962}]},{"name":"大连市","latitude":34.9922,"longitude":105.0648,"districts":[{"name":"中山区","latitude":34.9922,"longitude":105.0648},{"name":"西岗区","latitude":34.9922,"longitude":105.0648},{"name":"沙河口区","latitude":34.9922,"longitude":105.0648},{"name":"甘井子区","latitude":34.9922,"longitude":105.0648},{"name":"旅顺口区","latitude":34.9922,"longitude":105.0648},{"name":"金州区","latitude":34.9922,"longitude":105.0648},{"name":"普兰店区","latitude":34.9922,"longitude":105.0648},{"name":"长海县","latitude":34.9922,"longitude":105.0648},{"name":"瓦房店市","latitude":34.9922,"longitude":105.0648},{"name":"庄河市","latitude":34.9922,"longitude":105.0648}]},{"name":"鞍山市","latitude":35.0342,"longitude":104.9882,"districts":[{"name":"铁东区","latitude":35.0342,"longitude":104.9882},{"name":"铁西区","latitude":35.0342,"longitude":104.9882},{"name":"立山区","latitude":35.0342,"longitude":104.9882},{"name":"千山区","latitude":35.0342,"longitude":104.9882},{"name":"台安县","latitude":35.0342,"longitude":104.9882},{"name":"岫岩满族自治县","latitude":35.0342,"longitude":104.9882},{"name":"海城市","latitude":35.0342,"longitude":104.9882}]},{"name":"抚顺市","latitude":34.9088,"longitude":104.9852,"districts":[{"name":"新抚区","latitude":34.9088,"longitude":104.9852},{"name":"东洲区","latitude":34.9088,"longitude":104.9852},{"name":"望花区","latitude":34.9088,"longitude":104.9852},{"name":"顺城区","latitude":34.9088,"longitude":104.9852},{"name":"抚顺县","latitude":34.9088,"longitude":104.9852},{"name":"新宾满族自治县","latitude":34.9088,"longitude":104.9852},{"name":"清原满族自治县","latitude":34.9088,"longitude":104.9852}]},{"name":"本溪市","latitude":35.024,"longitude":105.0604,"districts":[{"name":"平山区","latitude":35.024,"longitude":105.0604},{"name":"溪湖区","latitude":35.024,"longitude":105.0604},{"name":"明山区","latitude":35.024,"longitude":105.0604},{"name":"南芬区","latitude":35.024,"longitude":105.0604},{"name":"本溪满族自治县","latitude":35.024,"longitude":105.0604},{"name":"桓仁满族自治县","latitude":35.024,"longitude":105.0604}]},{"name":"丹东市","latitude":35.051,"longitude":105.0752,"districts":[{"name":"元宝区","latitude":35.051,"longitude":105.0752},{"name":"振兴区","latitude":35.051,"longitude":105.0752},{"name":"振安区","latitude":35.051,"longitude":105.0752},{"name":"宽甸满族自治县","latitude":35.051,"longitude":105.0752},{"name":"东港市","latitude":35.051,"longitude":105.0752},{"name":"凤城市","latitude":35.051,"longitude":105.0752}]},{"name":"锦州市","latitude":34.9878,"longitude":105.0774,"districts":[{"name":"古塔区","latitude":34.9878,"longitude":105.0774},{"name":"凌河区","latitude":34.9878,"longitude":105.0774},{"name":"太和区","latitude":34.9878,"longitude":105.0774},{"name":"黑山县","latitude":34.9878,"longitude":105.0774},{"name":"义县","latitude":34.9878,"longitude":105.0774},{"name":"凌海市","latitude":34.9878,"longitude":105.0774},{"name":"北镇市","latitude":34.9878,"longitude":105.0774}]},{"name":"营口市","latitude":35.0914,"longitude":104.9666,"districts":[{"name":"站前区","latitude":35.0914,"longitude":104.9666},{"name":"西市区","latitude":35.0914,"longitude":104.9666},{"name":"鲅鱼圈区","latitude":35.0914,"longitude":104.9666},{"name":"老边区","latitude":35.0914,"longitude":104.9666},{"name":"盖州市","latitude":35.0914,"longitude":104.9666},{"name":"大石桥市","latitude":35.0914,"longitude":104.9666}]},{"name":"阜新市","latitude":35.0512,"longitude":104.9806,"districts":[{"name":"海州区","latitude":35.0512,"longitude":104.9806},{"name":"新邱区","latitude":35.0512,"longitude":104.9806},{"name":"太平区","latitude":35.0512,"longitude":104.9806},{"name":"清河门区","latitude":35.0512,"longitude":104.9806},{"name":"细河区","latitude":35.0512,"longitude":104.9806},{"name":"阜新蒙古族自治县","latitude":35.0512,"longitude":104.9806},{"name":"彰武县","latitude":35.0512,"longitude":104.9806}]},{"name":"辽阳市","latitude":35.0558,"longitude":104.9476,"districts":[{"name":"白塔区","latitude":35.0558,"longitude":104.9476},{"name":"文圣区","latitude":35.0558,"longitude":104.9476},{"name":"宏伟区","latitude":35.0558,"longitude":104.9476},{"name":"弓长岭区","latitude":35.0558,"longitude":104.9476},{"name":"太子河区","latitude":35.0558,"longitude":104.9476},{"name":"辽阳县","latitude":35.0558,"longitude":104.9476},{"name":"灯塔市","latitude":35.0558,"longitude":104.9476}]},{"name":"盘锦市","latitude":35.0434,"longitude":105.079,"districts":[{"name":"双台子区","latitude":35.0434,"longitude":105.079},{"name":"兴隆台区","latitude":35.0434,"longitude":105.079},{"name":"大洼区","latitude":35.0434,"longitude":105.079},{"name":"盘山县","latitude":35.0434,"longitude":105.079}]},{"name":"铁岭市","latitude":35.028,"longitude":105.0306,"districts":[{"name":"银州区","latitude":35.028,"longitude":105.0306},{"name":"清河区","latitude":35.028,"longitude":105.0306},{"name":"铁岭县","latitude":35.028,"longitude":105.0306},{"name":"西丰县","latitude":35.028,"longitude":105.0306},{"name":"昌图县","latitude":35.028,"longitude":105.0306},{"name":"调兵山市","latitude":35.028,"longitude":105.0306},{"name":"开原市","latitude":35.028,"longitude":105.0306}]},{"name":"朝阳市","latitude":34.9052,"longitude":105.0464,"districts":[{"name":"双塔区","latitude":34.9052,"longitude":105.0464},{"name":"龙城区","latitude":34.9052,"longitude":105.0464},{"name":"朝阳县","latitude":34.9052,"longitude":105.0464},{"name":"建平县","latitude":34.9052,"longitude":105.0464},{"name":"喀喇沁左翼蒙古族自治县","latitude":34.9052,"longitude":105.0464},{"name":"北票市","latitude":34.9052,"longitude":105.0464},{"name":"凌源市","latitude":34.9052,"longitude":105.0464}]},{"name":"葫芦岛市","latitude":34.924,"longitude":104.9972,"districts":[{"name":"连山区","latitude":34.924,"longitude":104.9972},{"name":"龙港区","latitude":34.924,"longitude":104.9972},{"name":"南票区","latitude":34.924,"longitude":104.9972},{"name":"绥中县","latitude":34.924,"longitude":104.9972},{"name":"建昌县","latitude":34.924,"longitude":104.9972},{"name":"兴城市","latitude":34.924,"longitude":104.9972}]}]},{"name":"吉林省","timezone":"Asia/Shanghai","cities":[{"name":"长春市","latitude":34.9008,"longitude":104.983,"districts":[{"name":"南关区","latitude":34.9008,"longitude":104.983},{"name":"宽城区","latitude":34.9008,"longitude":104.983},{"name":"朝阳区","latitude":34.9008,"longitude":104.983},{"name":"二道区","latitude":34.9008,"longitude":104.983},{"name":"绿园区","latitude":34.9008,"longitude":104.983},{"name":"双阳区","latitude":34.9008,"longitude":104.983},{"name":"九台区","latitude":34.9008,"longitude":104.983},{"name":"农安县","latitude":34.9008,"longitude":104.983},{"name":"长春经济技术开发区","latitude":34.9008,"longitude":104.983},{"name":"长春净月高新技术产业开发区","latitude":34.9008,"longitude":104.983},{"name":"长春高新技术产业开发区","latitude":34.9008,"longitude":104.983},{"name":"长春汽车经济技术开发区","latitude":34.9008,"longitude":104.983},{"name":"榆树市","latitude":34.9008,"longitude":104.983},{"name":"德惠市","latitude":34.9008,"longitude":104.983},{"name":"公主岭市","latitude":34.9008,"longitude":104.983}]},{"name":"吉林市","latitude":34.9524,"longitude":105.0532,"districts":[{"name":"昌邑区","latitude":34.9524,"longitude":105.0532},{"name":"龙潭区","latitude":34.9524,"longitude":105.0532},{"name":"船营区","latitude":34.9524,"longitude":105.0532},{"name":"丰满区","latitude":34.9524,"longitude":105.0532},{"name":"永吉县","latitude":34.9524,"longitude":105.0532},{"name":"吉林经济开发区","latitude":34.9524,"longitude":105.0532},{"name":"吉林高新技术产业开发区","latitude":34.9524,"longitude":105.0532},{"name":"吉林中国新加坡食品区","latitude":34.9524,"longitude":105.0532},{"name":"蛟河市","latitude":34.9524,"longitude":105.0532},{"name":"桦甸市","latitude":34.9524,"longitude":105.0532},{"name":"舒兰市","latitude":34.9524,"longitude":105.0532},{"name":"磐石市","latitude":34.9524,"longitude":105.0532}]},{"name":"四平市","latitude":35.0594,"longitude":104.9134,"districts":[{"name":"铁西区","latitude":35.0594,"longitude":104.9134},{"name":"铁东区","latitude":35.0594,"longitude":104.9134},{"name":"梨树县","latitude":35.0594,"longitude":104.9134},{"name":"伊通满族自治县","latitude":35.0594,"longitude":104.9134},{"name":"双辽市","latitude":35.0594,"longitude":104.9134}]},{"name":"辽源市","latitude":35.0512,"longitude":104.9764,"districts":[{"name":"龙山区","latitude":35.0512,"longitude":104.9764},{"name":"西安区","latitude":35.0512,"longitude":104.9764},{"name":"东丰县","latitude":35.0512,"longitude":104.9764},{"name":"东辽县","latitude":35.0512,"longitude":104.9764}]},{"name":"通化市","latitude":35.0844,"longitude":105.0356,"districts":[{"name":"东昌区","latitude":35.0844,"longitude":105.0356},{"name":"二道江区","latitude":35.0844,"longitude":105.0356},{"name":"通化县","latitude":35.0844,"longitude":105.0356},{"name":"辉南县","latitude":35.0844,"longitude":105.0356},{"name":"柳河县","latitude":35.0844,"longitude":105.0356},{"name":"梅河口市","latitude":35.0844,"longitude":105.0356},{"name":"集安市","latitude":35.0844,"longitude":105.0356}]},{"name":"白山市","latitude":35.026,"longitude":105.091,"districts":[{"name":"浑江区","latitude":35.026,"longitude":105.091},{"name":"江源区","latitude":35.026,"longitude":105.091},{"name":"抚松县","latitude":35.026,"longitude":105.091},{"name":"靖宇县","latitude":35.026,"longitude":105.091},{"name":"长白朝鲜族自治县","latitude":35.026,"longitude":105.091},{"name":"临江市","latitude":35.026,"longitude":105.091}]},{"name":"松原市","latitude":34.9298,"longitude":104.9296,"districts":[{"name":"宁江区","latitude":34.9298,"longitude":104.9296},{"name":"前郭尔罗斯蒙古族自治县","latitude":34.9298,"longitude":104.9296},{"name":"长岭县","latitude":34.9298,"longitude":104.9296},{"name":"乾安县","latitude":34.9298,"longitude":104.9296},{"name":"吉林松原经济开发区","latitude":34.9298,"longitude":104.9296},{"name":"扶余市","latitude":34.9298,"longitude":104.9296}]},{"name":"白城市","latitude":35.075,"longitude":104.9704,"districts":[{"name":"洮北区","latitude":35.075,"longitude":104.9704},{"name":"镇赉县","latitude":35.075,"longitude":104.9704},{"name":"通榆县","latitude":35.075,"longitude":104.9704},{"name":"吉林白城经济开发区","latitude":35.075,"longitude":104.9704},{"name":"洮南市","latitude":35.075,"longitude":104.9704},{"name":"大安市","latitude":35.075,"longitude":104.9704}]},{"name":"延边朝鲜族自治州","latitude":35.035,"longitude":105.0702,"districts":[{"name":"延吉市","latitude":35.035,"longitude":105.0702},{"name":"图们市","latitude":35.035,"longitude":105.0702},{"name":"敦化市","latitude":35.035,"longitude":105.0702},{"name":"珲春市","latitude":35.035,"longitude":105.0702},{"name":"龙井市","latitude":35.035,"longitude":105.0702},{"name":"和龙市","latitude":35.035,"longitude":105.0702},{"name":"汪清县","latitude":35.035,"longitude":105.0702},{"name":"安图县","latitude":35.035,"longitude":105.0702}]}]},{"name":"黑龙江省","timezone":"Asia/Shanghai","cities":[{"name":"哈尔滨市","latitude":34.953,"longitude":105.0792,"districts":[{"name":"道里区","latitude":34.953,"longitude":105.0792},{"name":"南岗区","latitude":34.953,"longitude":105.0792},{"name":"道外区","latitude":34.953,"longitude":105.0792},{"name":"平房区","latitude":34.953,"longitude":105.0792},{"name":"松北区","latitude":34.953,"longitude":105.0792},{"name":"香坊区","latitude":34.953,"longitude":105.0792},{"name":"呼兰区","latitude":34.953,"longitude":105.0792},{"name":"阿城区","latitude":34.953,"longitude":105.0792},{"name":"双城区","latitude":34.953,"longitude":105.0792},{"name":"依兰县","latitude":34.953,"longitude":105.0792},{"name":"方正县","latitude":34.953,"longitude":105.0792},{"name":"宾县","latitude":34.953,"longitude":105.0792},{"name":"巴彦县","latitude":34.953,"longitude":105.0792},{"name":"木兰县","latitude":34.953,"longitude":105.0792},{"name":"通河县","latitude":34.953,"longitude":105.0792},{"name":"延寿县","latitude":34.953,"longitude":105.0792},{"name":"尚志市","latitude":34.953,"longitude":105.0792},{"name":"五常市","latitude":34.953,"longitude":105.0792}]},{"name":"齐齐哈尔市","latitude":34.9194,"longitude":104.9992,"districts":[{"name":"龙沙区","latitude":34.9194,"longitude":104.9992},{"name":"建华区","latitude":34.9194,"longitude":104.9992},{"name":"铁锋区","latitude":34.9194,"longitude":104.9992},{"name":"昂昂溪区","latitude":34.9194,"longitude":104.9992},{"name":"富拉尔基区","latitude":34.9194,"longitude":104.9992},{"name":"碾子山区","latitude":34.9194,"longitude":104.9992},{"name":"梅里斯达斡尔族区","latitude":34.9194,"longitude":104.9992},{"name":"龙江县","latitude":34.9194,"longitude":104.9992},{"name":"依安县","latitude":34.9194,"longitude":104.9992},{"name":"泰来县","latitude":34.9194,"longitude":104.9992},{"name":"甘南县","latitude":34.9194,"longitude":104.9992},{"name":"富裕县","latitude":34.9194,"longitude":104.9992},{"name":"克山县","latitude":34.9194,"longitude":104.9992},{"name":"克东县","latitude":34.9194,"longitude":104.9992},{"name":"拜泉县","latitude":34.9194,"longitude":104.9992},{"name":"讷河市","latitude":34.9194,"longitude":104.9992}]},{"name":"鸡西市","latitude":35.053,"longitude":104.9596,"districts":[{"name":"鸡冠区","latitude":35.053,"longitude":104.9596},{"name":"恒山区","latitude":35.053,"longitude":104.9596},{"name":"滴道区","latitude":35.053,"longitude":104.9596},{"name":"梨树区","latitude":35.053,"longitude":104.9596},{"name":"城子河区","latitude":35.053,"longitude":104.9596},{"name":"麻山区","latitude":35.053,"longitude":104.9596},{"name":"鸡东县","latitude":35.053,"longitude":104.9596},{"name":"虎林市","latitude":35.053,"longitude":104.9596},{"name":"密山市","latitude":35.053,"longitude":104.9596}]},{"name":"鹤岗市","latitude":34.9622,"longitude":105.0584,"districts":[{"name":"向阳区","latitude":34.9622,"longitude":105.0584},{"name":"工农区","latitude":34.9622,"longitude":105.0584},{"name":"南山区","latitude":34.9622,"longitude":105.0584},{"name":"兴安区","latitude":34.9622,"longitude":105.0584},{"name":"东山区","latitude":34.9622,"longitude":105.0584},{"name":"兴山区","latitude":34.9622,"longitude":105.0584},{"name":"萝北县","latitude":34.9622,"longitude":105.0584},{"name":"绥滨县","latitude":34.9622,"longitude":105.0584}]},{"name":"双鸭山市","latitude":34.9544,"longitude":105.0992,"districts":[{"name":"尖山区","latitude":34.9544,"longitude":105.0992},{"name":"岭东区","latitude":34.9544,"longitude":105.0992},{"name":"四方台区","latitude":34.9544,"longitude":105.0992},{"name":"宝山区","latitude":34.9544,"longitude":105.0992},{"name":"集贤县","latitude":34.9544,"longitude":105.0992},{"name":"友谊县","latitude":34.9544,"longitude":105.0992},{"name":"宝清县","latitude":34.9544,"longitude":105.0992},{"name":"饶河县","latitude":34.9544,"longitude":105.0992}]},{"name":"大庆市","latitude":34.9772,"longitude":104.955,"districts":[{"name":"萨尔图区","latitude":34.9772,"longitude":104.955},{"name":"龙凤区","latitude":34.9772,"longitude":104.955},{"name":"让胡路区","latitude":34.9772,"longitude":104.955},{"name":"红岗区","latitude":34.9772,"longitude":104.955},{"name":"大同区","latitude":34.9772,"longitude":104.955},{"name":"肇州县","latitude":34.9772,"longitude":104.955},{"name":"肇源县","latitude":34.9772,"longitude":104.955},{"name":"林甸县","latitude":34.9772,"longitude":104.955},{"name":"杜尔伯特蒙古族自治县","latitude":34.9772,"longitude":104.955},{"name":"大庆高新技术产业开发区","latitude":34.9772,"longitude":104.955}]},{"name":"伊春市","latitude":34.9192,"longitude":105.0664,"districts":[{"name":"伊美区","latitude":34.9192,"longitude":105.0664},{"name":"乌翠区","latitude":34.9192,"longitude":105.0664},{"name":"友好区","latitude":34.9192,"longitude":105.0664},{"name":"嘉荫县","latitude":34.9192,"longitude":105.0664},{"name":"汤旺县","latitude":34.9192,"longitude":105.0664},{"name":"丰林县","latitude":34.9192,"longitude":105.0664},{"name":"大箐山县","latitude":34.9192,"longitude":105.0664},{"name":"南岔县","latitude":34.9192,"longitude":105.0664},{"name":"金林区","latitude":34.9192,"longitude":105.0664},{"name":"铁力市","latitude":34.9192,"longitude":105.0664}]},{"name":"佳木斯市","latitude":35.0724,"longitude":104.983,"districts":[{"name":"向阳区","latitude":35.0724,"longitude":104.983},{"name":"前进区","latitude":35.0724,"longitude":104.983},{"name":"东风区","latitude":35.0724,"longitude":104.983},{"name":"郊区","latitude":35.0724,"longitude":104.983},{"name":"桦南县","latitude":35.0724,"longitude":104.983},{"name":"桦川县","latitude":35.0724,"longitude":104.983},{"name":"汤原县","latitude":35.0724,"longitude":104.983},{"name":"同江市","latitude":35.0724,"longitude":104.983},{"name":"富锦市","latitude":35.0724,"longitude":104.983},{"name":"抚远市","latitude":35.0724,"longitude":104.983}]},{"name":"七台河市","latitude":34.9466,"longitude":105.0182,"districts":[{"name":"新兴区","latitude":34.9466,"longitude":105.0182},{"name":"桃山区","latitude":34.9466,"longitude":105.0182},{"name":"茄子河区","latitude":34.9466,"longitude":105.0182},{"name":"勃利县","latitude":34.9466,"longitude":105.0182}]},{"name":"牡丹江市","latitude":34.9402,"longitude":105.0278,"districts":[{"name":"东安区","latitude":34.9402,"longitude":105.0278},{"name":"阳明区","latitude":34.9402,"longitude":105.0278},{"name":"爱民区","latitude":34.9402,"longitude":105.0278},{"name":"西安区","latitude":34.9402,"longitude":105.0278},{"name":"林口县","latitude":34.9402,"longitude":105.0278},{"name":"绥芬河市","latitude":34.9402,"longitude":105.0278},{"name":"海林市","latitude":34.9402,"longitude":105.0278},{"name":"宁安市","latitude":34.9402,"longitude":105.0278},{"name":"穆棱市","latitude":34.9402,"longitude":105.0278},{"name":"东宁市","latitude":34.9402,"longitude":105.0278}]},{"name":"黑河市","latitude":34.9622,"longitude":105.0884,"districts":[{"name":"爱辉区","latitude":34.9622,"longitude":105.0884},{"name":"逊克县","latitude":34.9622,"longitude":105.0884},{"name":"孙吴县","latitude":34.9622,"longitude":105.0884},{"name":"北安市","latitude":34.9622,"longitude":105.0884},{"name":"五大连池市","latitude":34.9622,"longitude":105.0884},{"name":"嫩江市","latitude":34.9622,"longitude":105.0884}]},{"name":"绥化市","latitude":35.0642,"longitude":105.0228,"districts":[{"name":"北林区","latitude":35.0642,"longitude":105.0228},{"name":"望奎县","latitude":35.0642,"longitude":105.0228},{"name":"兰西县","latitude":35.0642,"longitude":105.0228},{"name":"青冈县","latitude":35.0642,"longitude":105.0228},{"name":"庆安县","latitude":35.0642,"longitude":105.0228},{"name":"明水县","latitude":35.0642,"longitude":105.0228},{"name":"绥棱县","latitude":35.0642,"longitude":105.0228},{"name":"安达市","latitude":35.0642,"longitude":105.0228},{"name":"肇东市","latitude":35.0642,"longitude":105.0228},{"name":"海伦市","latitude":35.0642,"longitude":105.0228}]},{"name":"大兴安岭地区","latitude":35.0388,"longitude":105.0208,"districts":[{"name":"漠河市","latitude":35.0388,"longitude":105.0208},{"name":"呼玛县","latitude":35.0388,"longitude":105.0208},{"name":"塔河县","latitude":35.0388,"longitude":105.0208},{"name":"加格达奇区","latitude":35.0388,"longitude":105.0208},{"name":"松岭区","latitude":35.0388,"longitude":105.0208},{"name":"新林区","latitude":35.0388,"longitude":105.0208},{"name":"呼中区","latitude":35.0388,"longitude":105.0208}]}]},{"name":"上海市","timezone":"Asia/Shanghai","cities":[{"name":"市辖区","latitude":31.225,"longitude":121.5527,"districts":[{"name":"黄浦区","latitude":31.225,"longitude":121.5527},{"name":"徐汇区","latitude":31.225,"longitude":121.5527},{"name":"长宁区","latitude":31.225,"longitude":121.5527},{"name":"静安区","latitude":31.225,"longitude":121.5527},{"name":"普陀区","latitude":31.225,"longitude":121.5527},{"name":"虹口区","latitude":31.225,"longitude":121.5527},{"name":"杨浦区","latitude":31.225,"longitude":121.5527},{"name":"闵行区","latitude":31.225,"longitude":121.5527},{"name":"宝山区","latitude":31.225,"longitude":121.5527},{"name":"嘉定区","latitude":31.225,"longitude":121.5527},{"name":"浦东新区","latitude":31.225,"longitude":121.5527},{"name":"金山区","latitude":31.225,"longitude":121.5527},{"name":"松江区","latitude":31.225,"longitude":121.5527},{"name":"青浦区","latitude":31.225,"longitude":121.5527},{"name":"奉贤区","latitude":31.225,"longitude":121.5527},{"name":"崇明区","latitude":31.225,"longitude":121.5527}]}]},{"name":"江苏省","timezone":"Asia/Shanghai","cities":[{"name":"南京市","latitude":35.059,"longitude":104.9838,"districts":[{"name":"玄武区","latitude":35.059,"longitude":104.9838},{"name":"秦淮区","latitude":35.059,"longitude":104.9838},{"name":"建邺区","latitude":35.059,"longitude":104.9838},{"name":"鼓楼区","latitude":35.059,"longitude":104.9838},{"name":"浦口区","latitude":35.059,"longitude":104.9838},{"name":"栖霞区","latitude":35.059,"longitude":104.9838},{"name":"雨花台区","latitude":35.059,"longitude":104.9838},{"name":"江宁区","latitude":35.059,"longitude":104.9838},{"name":"六合区","latitude":35.059,"longitude":104.9838},{"name":"溧水区","latitude":35.059,"longitude":104.9838},{"name":"高淳区","latitude":35.059,"longitude":104.9838}]},{"name":"无锡市","latitude":35.089,"longitude":104.9876,"districts":[{"name":"锡山区","latitude":35.089,"longitude":104.9876},{"name":"惠山区","latitude":35.089,"longitude":104.9876},{"name":"滨湖区","latitude":35.089,"longitude":104.9876},{"name":"梁溪区","latitude":35.089,"longitude":104.9876},{"name":"新吴区","latitude":35.089,"longitude":104.9876},{"name":"江阴市","latitude":35.089,"longitude":104.9876},{"name":"宜兴市","latitude":35.089,"longitude":104.9876}]},{"name":"徐州市","latitude":34.9132,"longitude":105.0886,"districts":[{"name":"鼓楼区","latitude":34.9132,"longitude":105.0886},{"name":"云龙区","latitude":34.9132,"longitude":105.0886},{"name":"贾汪区","latitude":34.9132,"longitude":105.0886},{"name":"泉山区","latitude":34.9132,"longitude":105.0886},{"name":"铜山区","latitude":34.9132,"longitude":105.0886},{"name":"丰县","latitude":34.9132,"longitude":105.0886},{"name":"沛县","latitude":34.9132,"longitude":105.0886},{"name":"睢宁县","latitude":34.9132,"longitude":105.0886},{"name":"徐州经济技术开发区","latitude":34.9132,"longitude":105.0886},{"name":"新沂市","latitude":34.9132,"longitude":105.0886},{"name":"邳州市","latitude":34.9132,"longitude":105.0886}]},{"name":"常州市","latitude":34.9876,"longitude":104.9102,"districts":[{"name":"天宁区","latitude":34.9876,"longitude":104.9102},{"name":"钟楼区","latitude":34.9876,"longitude":104.9102},{"name":"新北区","latitude":34.9876,"longitude":104.9102},{"name":"武进区","latitude":34.9876,"longitude":104.9102},{"name":"金坛区","latitude":34.9876,"longitude":104.9102},{"name":"溧阳市","latitude":34.9876,"longitude":104.9102}]},{"name":"苏州市","latitude":35.0634,"longitude":104.9546,"districts":[{"name":"虎丘区","latitude":35.0634,"longitude":104.9546},{"name":"吴中区","latitude":35.0634,"longitude":104.9546},{"name":"相城区","latitude":35.0634,"longitude":104.9546},{"name":"姑苏区","latitude":35.0634,"longitude":104.9546},{"name":"吴江区","latitude":35.0634,"longitude":104.9546},{"name":"苏州工业园区","latitude":35.0634,"longitude":104.9546},{"name":"常熟市","latitude":35.0634,"longitude":104.9546},{"name":"张家港市","latitude":35.0634,"longitude":104.9546},{"name":"昆山市","latitude":35.0634,"longitude":104.9546},{"name":"太仓市","latitude":35.0634,"longitude":104.9546}]},{"name":"南通市","latitude":34.9688,"longitude":105.0388,"districts":[{"name":"通州区","latitude":34.9688,"longitude":105.0388},{"name":"崇川区","latitude":34.9688,"longitude":105.0388},{"name":"海门区","latitude":34.9688,"longitude":105.0388},{"name":"如东县","latitude":34.9688,"longitude":105.0388},{"name":"南通经济技术开发区","latitude":34.9688,"longitude":105.0388},{"name":"启东市","latitude":34.9688,"longitude":105.0388},{"name":"如皋市","latitude":34.9688,"longitude":105.0388},{"name":"海安市","latitude":34.9688,"longitude":105.0388}]},{"name":"连云港市","latitude":34.9024,"longitude":105.0064,"districts":[{"name":"连云区","latitude":34.9024,"longitude":105.0064},{"name":"海州区","latitude":34.9024,"longitude":105.0064},{"name":"赣榆区","latitude":34.9024,"longitude":105.0064},{"name":"东海县","latitude":34.9024,"longitude":105.0064},{"name":"灌云县","latitude":34.9024,"longitude":105.0064},{"name":"灌南县","latitude":34.9024,"longitude":105.0064},{"name":"连云港经济技术开发区","latitude":34.9024,"longitude":105.0064}]},{"name":"淮安市","latitude":35.042,"longitude":104.9914,"districts":[{"name":"淮安区","latitude":35.042,"longitude":104.9914},{"name":"淮阴区","latitude":35.042,"longitude":104.9914},{"name":"清江浦区","latitude":35.042,"longitude":104.9914},{"name":"洪泽区","latitude":35.042,"longitude":104.9914},{"name":"涟水县","latitude":35.042,"longitude":104.9914},{"name":"盱眙县","latitude":35.042,"longitude":104.9914},{"name":"金湖县","latitude":35.042,"longitude":104.9914},{"name":"淮安经济技术开发区","latitude":35.042,"longitude":104.9914}]},{"name":"盐城市","latitude":34.9496,"longitude":105.0956,"districts":[{"name":"亭湖区","latitude":34.9496,"longitude":105.0956},{"name":"盐都区","latitude":34.9496,"longitude":105.0956},{"name":"大丰区","latitude":34.9496,"longitude":105.0956},{"name":"响水县","latitude":34.9496,"longitude":105.0956},{"name":"滨海县","latitude":34.9496,"longitude":105.0956},{"name":"阜宁县","latitude":34.9496,"longitude":105.0956},{"name":"射阳县","latitude":34.9496,"longitude":105.0956},{"name":"建湖县","latitude":34.9496,"longitude":105.0956},{"name":"盐城经济技术开发区","latitude":34.9496,"longitude":105.0956},{"name":"东台市","latitude":34.9496,"longitude":105.0956}]},{"name":"扬州市","latitude":34.9304,"longitude":105.048,"districts":[{"name":"广陵区","latitude":34.9304,"longitude":105.048},{"name":"邗江区","latitude":34.9304,"longitude":105.048},{"name":"江都区","latitude":34.9304,"longitude":105.048},{"name":"宝应县","latitude":34.9304,"longitude":105.048},{"name":"扬州经济技术开发区","latitude":34.9304,"longitude":105.048},{"name":"仪征市","latitude":34.9304,"longitude":105.048},{"name":"高邮市","latitude":34.9304,"longitude":105.048}]},{"name":"镇江市","latitude":34.9286,"longitude":105.0554,"districts":[{"name":"京口区","latitude":34.9286,"longitude":105.0554},{"name":"润州区","latitude":34.9286,"longitude":105.0554},{"name":"丹徒区","latitude":34.9286,"longitude":105.0554},{"name":"镇江新区","latitude":34.9286,"longitude":105.0554},{"name":"丹阳市","latitude":34.9286,"longitude":105.0554},{"name":"扬中市","latitude":34.9286,"longitude":105.0554},{"name":"句容市","latitude":34.9286,"longitude":105.0554}]},{"name":"泰州市","latitude":35.0376,"longitude":105.0374,"districts":[{"name":"海陵区","latitude":35.0376,"longitude":105.0374},{"name":"高港区","latitude":35.0376,"longitude":105.0374},{"name":"姜堰区","latitude":35.0376,"longitude":105.0374},{"name":"兴化市","latitude":35.0376,"longitude":105.0374},{"name":"靖江市","latitude":35.0376,"longitude":105.0374},{"name":"泰兴市","latitude":35.0376,"longitude":105.0374}]},{"name":"宿迁市","latitude":34.9462,"longitude":104.9724,"districts":[{"name":"宿城区","latitude":34.9462,"longitude":104.9724},{"name":"宿豫区","latitude":34.9462,"longitude":104.9724},{"name":"沭阳县","latitude":34.9462,"longitude":104.9724},{"name":"泗阳县","latitude":34.9462,"longitude":104.9724},{"name":"泗洪县","latitude":34.9462,"longitude":104.9724},{"name":"宿迁经济技术开发区","latitude":34.9462,"longitude":104.9724}]}]},{"name":"浙江省","timezone":"Asia/Shanghai","cities":[{"name":"杭州市","latitude":35.0884,"longitude":105.0584,"districts":[{"name":"上城区","latitude":35.0884,"longitude":105.0584},{"name":"拱墅区","latitude":35.0884,"longitude":105.0584},{"name":"西湖区","latitude":35.0884,"longitude":105.0584},{"name":"滨江区","latitude":35.0884,"longitude":105.0584},{"name":"萧山区","latitude":35.0884,"longitude":105.0584},{"name":"余杭区","latitude":35.0884,"longitude":105.0584},{"name":"富阳区","latitude":35.0884,"longitude":105.0584},{"name":"临安区","latitude":35.0884,"longitude":105.0584},{"name":"临平区","latitude":35.0884,"longitude":105.0584},{"name":"钱塘区","latitude":35.0884,"longitude":105.0584},{"name":"桐庐县","latitude":35.0884,"longitude":105.0584},{"name":"淳安县","latitude":35.0884,"longitude":105.0584},{"name":"建德市","latitude":35.0884,"longitude":105.0584}]},{"name":"宁波市","latitude":35.0436,"longitude":104.9334,"districts":[{"name":"海曙区","latitude":35.0436,"longitude":104.9334},{"name":"江北区","latitude":35.0436,"longitude":104.9334},{"name":"北仑区","latitude":35.0436,"longitude":104.9334},{"name":"镇海区","latitude":35.0436,"longitude":104.9334},{"name":"鄞州区","latitude":35.0436,"longitude":104.9334},{"name":"奉化区","latitude":35.0436,"longitude":104.9334},{"name":"象山县","latitude":35.0436,"longitude":104.9334},{"name":"宁海县","latitude":35.0436,"longitude":104.9334},{"name":"余姚市","latitude":35.0436,"longitude":104.9334},{"name":"慈溪市","latitude":35.0436,"longitude":104.9334}]},{"name":"温州市","latitude":34.9082,"longitude":105.0528,"districts":[{"name":"鹿城区","latitude":34.9082,"longitude":105.0528},{"name":"龙湾区","latitude":34.9082,"longitude":105.0528},{"name":"瓯海区","latitude":34.9082,"longitude":105.0528},{"name":"洞头区","latitude":34.9082,"longitude":105.0528},{"name":"永嘉县","latitude":34.9082,"longitude":105.0528},{"name":"平阳县","latitude":34.9082,"longitude":105.0528},{"name":"苍南县","latitude":34.9082,"longitude":105.0528},{"name":"文成县","latitude":34.9082,"longitude":105.0528},{"name":"泰顺县","latitude":34.9082,"longitude":105.0528},{"name":"瑞安市","latitude":34.9082,"longitude":105.0528},{"name":"乐清市","latitude":34.9082,"longitude":105.0528},{"name":"龙港市","latitude":34.9082,"longitude":105.0528}]},{"name":"嘉兴市","latitude":35.0546,"longitude":105.0486,"districts":[{"name":"南湖区","latitude":35.0546,"longitude":105.0486},{"name":"秀洲区","latitude":35.0546,"longitude":105.0486},{"name":"嘉善县","latitude":35.0546,"longitude":105.0486},{"name":"海盐县","latitude":35.0546,"longitude":105.0486},{"name":"海宁市","latitude":35.0546,"longitude":105.0486},{"name":"平湖市","latitude":35.0546,"longitude":105.0486},{"name":"桐乡市","latitude":35.0546,"longitude":105.0486}]},{"name":"湖州市","latitude":34.9148,"longitude":104.9346,"districts":[{"name":"吴兴区","latitude":34.9148,"longitude":104.9346},{"name":"南浔区","latitude":34.9148,"longitude":104.9346},{"name":"德清县","latitude":34.9148,"longitude":104.9346},{"name":"长兴县","latitude":34.9148,"longitude":104.9346},{"name":"安吉县","latitude":34.9148,"longitude":104.9346}]},{"name":"绍兴市","latitude":35.067,"longitude":105.0972,"districts":[{"name":"越城区","latitude":35.067,"longitude":105.0972},{"name":"柯桥区","latitude":35.067,"longitude":105.0972},{"name":"上虞区","latitude":35.067,"longitude":105.0972},{"name":"新昌县","latitude":35.067,"longitude":105.0972},{"name":"诸暨市","latitude":35.067,"longitude":105.0972},{"name":"嵊州市","latitude":35.067,"longitude":105.0972}]},{"name":"金华市","latitude":35.0398,"longitude":104.9198,"districts":[{"name":"婺城区","latitude":35.0398,"longitude":104.9198},{"name":"金东区","latitude":35.0398,"longitude":104.9198},{"name":"武义县","latitude":35.0398,"longitude":104.9198},{"name":"浦江县","latitude":35.0398,"longitude":104.9198},{"name":"磐安县","latitude":35.0398,"longitude":104.9198},{"name":"兰溪市","latitude":35.0398,"longitude":104.9198},{"name":"义乌市","latitude":35.0398,"longitude":104.9198},{"name":"东阳市","latitude":35.0398,"longitude":104.9198},{"name":"永康市","latitude":35.0398,"longitude":104.9198}]},{"name":"衢州市","latitude":35.0336,"longitude":105.0428,"districts":[{"name":"柯城区","latitude":35.0336,"longitude":105.0428},{"name":"衢江区","latitude":35.0336,"longitude":105.0428},{"name":"常山县","latitude":35.0336,"longitude":105.0428},{"name":"开化县","latitude":35.0336,"longitude":105.0428},{"name":"龙游县","latitude":35.0336,"longitude":105.0428},{"name":"江山市","latitude":35.0336,"longitude":105.0428}]},{"name":"舟山市","latitude":34.9192,"longitude":104.9768,"districts":[{"name":"定海区","latitude":34.9192,"longitude":104.9768},{"name":"普陀区","latitude":34.9192,"longitude":104.9768},{"name":"岱山县","latitude":34.9192,"longitude":104.9768},{"name":"嵊泗县","latitude":34.9192,"longitude":104.9768}]},{"name":"台州市","latitude":35.0214,"longitude":104.9056,"districts":[{"name":"椒江区","latitude":35.0214,"longitude":104.9056},{"name":"黄岩区","latitude":35.0214,"longitude":104.9056},{"name":"路桥区","latitude":35.0214,"longitude":104.9056},{"name":"三门县","latitude":35.0214,"longitude":104.9056},{"name":"天台县","latitude":35.0214,"longitude":104.9056},{"name":"仙居县","latitude":35.0214,"longitude":104.9056},{"name":"温岭市","latitude":35.0214,"longitude":104.9056},{"name":"临海市","latitude":35.0214,"longitude":104.9056},{"name":"玉环市","latitude":35.0214,"longitude":104.9056}]},{"name":"丽水市","latitude":35.051,"longitude":104.9542,"districts":[{"name":"莲都区","latitude":35.051,"longitude":104.9542},{"name":"青田县","latitude":35.051,"longitude":104.9542},{"name":"缙云县","latitude":35.051,"longitude":104.9542},{"name":"遂昌县","latitude":35.051,"longitude":104.9542},{"name":"松阳县","latitude":35.051,"longitude":104.9542},{"name":"云和县","latitude":35.051,"longitude":104.9542},{"name":"庆元县","latitude":35.051,"longitude":104.9542},{"name":"景宁畲族自治县","latitude":35.051,"longitude":104.9542},{"name":"龙泉市","latitude":35.051,"longitude":104.9542}]}]},{"name":"安徽省","timezone":"Asia/Shanghai","cities":[{"name":"合肥市","latitude":35.093,"longitude":104.9902,"districts":[{"name":"瑶海区","latitude":35.093,"longitude":104.9902},{"name":"庐阳区","latitude":35.093,"longitude":104.9902},{"name":"蜀山区","latitude":35.093,"longitude":104.9902},{"name":"包河区","latitude":35.093,"longitude":104.9902},{"name":"长丰县","latitude":35.093,"longitude":104.9902},{"name":"肥东县","latitude":35.093,"longitude":104.9902},{"name":"肥西县","latitude":35.093,"longitude":104.9902},{"name":"庐江县","latitude":35.093,"longitude":104.9902},{"name":"合肥高新技术产业开发区","latitude":35.093,"longitude":104.9902},{"name":"合肥经济技术开发区","latitude":35.093,"longitude":104.9902},{"name":"合肥新站高新技术产业开发区","latitude":35.093,"longitude":104.9902},{"name":"巢湖市","latitude":35.093,"longitude":104.9902}]},{"name":"芜湖市","latitude":34.9434,"longitude":105.0886,"districts":[{"name":"镜湖区","latitude":34.9434,"longitude":105.0886},{"name":"鸠江区","latitude":34.9434,"longitude":105.0886},{"name":"弋江区","latitude":34.9434,"longitude":105.0886},{"name":"湾沚区","latitude":34.9434,"longitude":105.0886},{"name":"繁昌区","latitude":34.9434,"longitude":105.0886},{"name":"南陵县","latitude":34.9434,"longitude":105.0886},{"name":"芜湖经济技术开发区","latitude":34.9434,"longitude":105.0886},{"name":"安徽芜湖三山经济开发区","latitude":34.9434,"longitude":105.0886},{"name":"无为市","latitude":34.9434,"longitude":105.0886}]},{"name":"蚌埠市","latitude":34.9294,"longitude":104.9908,"districts":[{"name":"龙子湖区","latitude":34.9294,"longitude":104.9908},{"name":"蚌山区","latitude":34.9294,"longitude":104.9908},{"name":"禹会区","latitude":34.9294,"longitude":104.9908},{"name":"淮上区","latitude":34.9294,"longitude":104.9908},{"name":"怀远县","latitude":34.9294,"longitude":104.9908},{"name":"五河县","latitude":34.9294,"longitude":104.9908},{"name":"固镇县","latitude":34.9294,"longitude":104.9908},{"name":"蚌埠市高新技术开发区","latitude":34.9294,"longitude":104.9908},{"name":"蚌埠市经济开发区","latitude":34.9294,"longitude":104.9908}]},{"name":"淮南市","latitude":35.0408,"longitude":104.946,"districts":[{"name":"大通区","latitude":35.0408,"longitude":104.946},{"name":"田家庵区","latitude":35.0408,"longitude":104.946},{"name":"谢家集区","latitude":35.0408,"longitude":104.946},{"name":"八公山区","latitude":35.0408,"longitude":104.946},{"name":"潘集区","latitude":35.0408,"longitude":104.946},{"name":"凤台县","latitude":35.0408,"longitude":104.946},{"name":"寿县","latitude":35.0408,"longitude":104.946}]},{"name":"马鞍山市","latitude":34.984,"longitude":104.931,"districts":[{"name":"花山区","latitude":34.984,"longitude":104.931},{"name":"雨山区","latitude":34.984,"longitude":104.931},{"name":"博望区","latitude":34.984,"longitude":104.931},{"name":"当涂县","latitude":34.984,"longitude":104.931},{"name":"含山县","latitude":34.984,"longitude":104.931},{"name":"和县","latitude":34.984,"longitude":104.931}]},{"name":"淮北市","latitude":35.0152,"longitude":104.9852,"districts":[{"name":"杜集区","latitude":35.0152,"longitude":104.9852},{"name":"相山区","latitude":35.0152,"longitude":104.9852},{"name":"烈山区","latitude":35.0152,"longitude":104.9852},{"name":"濉溪县","latitude":35.0152,"longitude":104.9852}]},{"name":"铜陵市","latitude":34.963,"longitude":104.994,"districts":[{"name":"铜官区","latitude":34.963,"longitude":104.994},{"name":"义安区","latitude":34.963,"longitude":104.994},{"name":"郊区","latitude":34.963,"longitude":104.994},{"name":"枞阳县","latitude":34.963,"longitude":104.994}]},{"name":"安庆市","latitude":35.0834,"longitude":104.942,"districts":[{"name":"迎江区","latitude":35.0834,"longitude":104.942},{"name":"大观区","latitude":35.0834,"longitude":104.942},{"name":"宜秀区","latitude":35.0834,"longitude":104.942},{"name":"怀宁县","latitude":35.0834,"longitude":104.942},{"name":"太湖县","latitude":35.0834,"longitude":104.942},{"name":"宿松县","latitude":35.0834,"longitude":104.942},{"name":"望江县","latitude":35.0834,"longitude":104.942},{"name":"岳西县","latitude":35.0834,"longitude":104.942},{"name":"安徽安庆经济开发区","latitude":35.0834,"longitude":104.942},{"name":"桐城市","latitude":35.0834,"longitude":104.942},{"name":"潜山市","latitude":35.0834,"longitude":104.942}]},{"name":"黄山市","latitude":34.9924,"longitude":105.0126,"districts":[{"name":"屯溪区","latitude":34.9924,"longitude":105.0126},{"name":"黄山区","latitude":34.9924,"longitude":105.0126},{"name":"徽州区","latitude":34.9924,"longitude":105.0126},{"name":"歙县","latitude":34.9924,"longitude":105.0126},{"name":"休宁县","latitude":34.9924,"longitude":105.0126},{"name":"黟县","latitude":34.9924,"longitude":105.0126},{"name":"祁门县","latitude":34.9924,"longitude":105.0126}]},{"name":"滁州市","latitude":35.0386,"longitude":104.9066,"districts":[{"name":"琅琊区","latitude":35.0386,"longitude":104.9066},{"name":"南谯区","latitude":35.0386,"longitude":104.9066},{"name":"来安县","latitude":35.0386,"longitude":104.9066},{"name":"全椒县","latitude":35.0386,"longitude":104.9066},{"name":"定远县","latitude":35.0386,"longitude":104.9066},{"name":"凤阳县","latitude":35.0386,"longitude":104.9066},{"name":"中新苏滁高新技术产业开发区","latitude":35.0386,"longitude":104.9066},{"name":"滁州经济技术开发区","latitude":35.0386,"longitude":104.9066},{"name":"天长市","latitude":35.0386,"longitude":104.9066},{"name":"明光市","latitude":35.0386,"longitude":104.9066}]},{"name":"阜阳市","latitude":35.0936,"longitude":104.9982,"districts":[{"name":"颍州区","latitude":35.0936,"longitude":104.9982},{"name":"颍东区","latitude":35.0936,"longitude":104.9982},{"name":"颍泉区","latitude":35.0936,"longitude":104.9982},{"name":"临泉县","latitude":35.0936,"longitude":104.9982},{"name":"太和县","latitude":35.0936,"longitude":104.9982},{"name":"阜南县","latitude":35.0936,"longitude":104.9982},{"name":"颍上县","latitude":35.0936,"longitude":104.9982},{"name":"阜阳合肥现代产业园区","latitude":35.0936,"longitude":104.9982},{"name":"阜阳经济技术开发区","latitude":35.0936,"longitude":104.9982},{"name":"界首市","latitude":35.0936,"longitude":104.9982}]},{"name":"宿州市","latitude":34.9684,"longitude":105.0934,"districts":[{"name":"埇桥区","latitude":34.9684,"longitude":105.0934},{"name":"砀山县","latitude":34.9684,"longitude":105.0934},{"name":"萧县","latitude":34.9684,"longitude":105.0934},{"name":"灵璧县","latitude":34.9684,"longitude":105.0934},{"name":"泗县","latitude":34.9684,"longitude":105.0934},{"name":"宿州马鞍山现代产业园区","latitude":34.9684,"longitude":105.0934},{"name":"宿州经济技术开发区","latitude":34.9684,"longitude":105.0934}]},{"name":"六安市","latitude":35.0022,"longitude":104.9252,"districts":[{"name":"金安区","latitude":35.0022,"longitude":104.9252},{"name":"裕安区","latitude":35.0022,"longitude":104.9252},{"name":"叶集区","latitude":35.0022,"longitude":104.9252},{"name":"霍邱县","latitude":35.0022,"longitude":104.9252},{"name":"舒城县","latitude":35.0022,"longitude":104.9252},{"name":"金寨县","latitude":35.0022,"longitude":104.9252},{"name":"霍山县","latitude":35.0022,"longitude":104.9252}]},{"name":"亳州市","latitude":35.0158,"longitude":104.9788,"districts":[{"name":"谯城区","latitude":35.0158,"longitude":104.9788},{"name":"涡阳县","latitude":35.0158,"longitude":104.9788},{"name":"蒙城县","latitude":35.0158,"longitude":104.9788},{"name":"利辛县","latitude":35.0158,"longitude":104.9788}]},{"name":"池州市","latitude":34.9036,"longitude":105.0524,"districts":[{"name":"贵池区","latitude":34.9036,"longitude":105.0524},{"name":"东至县","latitude":34.9036,"longitude":105.0524},{"name":"石台县","latitude":34.9036,"longitude":105.0524},{"name":"青阳县","latitude":34.9036,"longitude":105.0524}]},{"name":"宣城市","latitude":35.0318,"longitude":105.031,"districts":[{"name":"宣州区","latitude":35.0318,"longitude":105.031},{"name":"郎溪县","latitude":35.0318,"longitude":105.031},{"name":"泾县","latitude":35.0318,"longitude":105.031},{"name":"绩溪县","latitude":35.0318,"longitude":105.031},{"name":"旌德县","latitude":35.0318,"longitude":105.031},{"name":"宣城市经济开发区","latitude":35.0318,"longitude":105.031},{"name":"宁国市","latitude":35.0318,"longitude":105.031},{"name":"广德市","latitude":35.0318,"longitude":105.031}]}]},{"name":"福建省","timezone":"Asia/Shanghai","cities":[{"name":"福州市","latitude":35.035,"longitude":104.9872,"districts":[{"name":"鼓楼区","latitude":35.035,"longitude":104.9872},{"name":"台江区","latitude":35.035,"longitude":104.9872},{"name":"仓山区","latitude":35.035,"longitude":104.9872},{"name":"马尾区","latitude":35.035,"longitude":104.9872},{"name":"晋安区","latitude":35.035,"longitude":104.9872},{"name":"长乐区","latitude":35.035,"longitude":104.9872},{"name":"闽侯县","latitude":35.035,"longitude":104.9872},{"name":"连江县","latitude":35.035,"longitude":104.9872},{"name":"罗源县","latitude":35.035,"longitude":104.9872},{"name":"闽清县","latitude":35.035,"longitude":104.9872},{"name":"永泰县","latitude":35.035,"longitude":104.9872},{"name":"平潭县","latitude":35.035,"longitude":104.9872},{"name":"福清市","latitude":35.035,"longitude":104.9872}]},{"name":"厦门市","latitude":34.9672,"longitude":104.9798,"districts":[{"name":"思明区","latitude":34.9672,"longitude":104.9798},{"name":"海沧区","latitude":34.9672,"longitude":104.9798},{"name":"湖里区","latitude":34.9672,"longitude":104.9798},{"name":"集美区","latitude":34.9672,"longitude":104.9798},{"name":"同安区","latitude":34.9672,"longitude":104.9798},{"name":"翔安区","latitude":34.9672,"longitude":104.9798}]},{"name":"莆田市","latitude":34.9764,"longitude":104.9216,"districts":[{"name":"城厢区","latitude":34.9764,"longitude":104.9216},{"name":"涵江区","latitude":34.9764,"longitude":104.9216},{"name":"荔城区","latitude":34.9764,"longitude":104.9216},{"name":"秀屿区","latitude":34.9764,"longitude":104.9216},{"name":"仙游县","latitude":34.9764,"longitude":104.9216}]},{"name":"三明市","latitude":35.0002,"longitude":104.9938,"districts":[{"name":"三元区","latitude":35.0002,"longitude":104.9938},{"name":"沙县区","latitude":35.0002,"longitude":104.9938},{"name":"明溪县","latitude":35.0002,"longitude":104.9938},{"name":"清流县","latitude":35.0002,"longitude":104.9938},{"name":"宁化县","latitude":35.0002,"longitude":104.9938},{"name":"大田县","latitude":35.0002,"longitude":104.9938},{"name":"尤溪县","latitude":35.0002,"longitude":104.9938},{"name":"将乐县","latitude":35.0002,"longitude":104.9938},{"name":"泰宁县","latitude":35.0002,"longitude":104.9938},{"name":"建宁县","latitude":35.0002,"longitude":104.9938},{"name":"永安市","latitude":35.0002,"longitude":104.9938}]},{"name":"泉州市","latitude":35.0454,"longitude":104.943,"districts":[{"name":"鲤城区","latitude":35.0454,"longitude":104.943},{"name":"丰泽区","latitude":35.0454,"longitude":104.943},{"name":"洛江区","latitude":35.0454,"longitude":104.943},{"name":"泉港区","latitude":35.0454,"longitude":104.943},{"name":"惠安县","latitude":35.0454,"longitude":104.943},{"name":"安溪县","latitude":35.0454,"longitude":104.943},{"name":"永春县","latitude":35.0454,"longitude":104.943},{"name":"德化县","latitude":35.0454,"longitude":104.943},{"name":"金门县","latitude":35.0454,"longitude":104.943},{"name":"石狮市","latitude":35.0454,"longitude":104.943},{"name":"晋江市","latitude":35.0454,"longitude":104.943},{"name":"南安市","latitude":35.0454,"longitude":104.943}]},{"name":"漳州市","latitude":34.9388,"longitude":105.091,"districts":[{"name":"芗城区","latitude":34.9388,"longitude":105.091},{"name":"龙文区","latitude":34.9388,"longitude":105.091},{"name":"龙海区","latitude":34.9388,"longitude":105.091},{"name":"长泰区","latitude":34.9388,"longitude":105.091},{"name":"云霄县","latitude":34.9388,"longitude":105.091},{"name":"漳浦县","latitude":34.9388,"longitude":105.091},{"name":"诏安县","latitude":34.9388,"longitude":105.091},{"name":"东山县","latitude":34.9388,"longitude":105.091},{"name":"南靖县","latitude":34.9388,"longitude":105.091},{"name":"平和县","latitude":34.9388,"longitude":105.091},{"name":"华安县","latitude":34.9388,"longitude":105.091}]},{"name":"南平市","latitude":34.9112,"longitude":105.061,"districts":[{"name":"延平区","latitude":34.9112,"longitude":105.061},{"name":"建阳区","latitude":34.9112,"longitude":105.061},{"name":"顺昌县","latitude":34.9112,"longitude":105.061},{"name":"浦城县","latitude":34.9112,"longitude":105.061},{"name":"光泽县","latitude":34.9112,"longitude":105.061},{"name":"松溪县","latitude":34.9112,"longitude":105.061},{"name":"政和县","latitude":34.9112,"longitude":105.061},{"name":"邵武市","latitude":34.9112,"longitude":105.061},{"name":"武夷山市","latitude":34.9112,"longitude":105.061},{"name":"建瓯市","latitude":34.9112,"longitude":105.061}]},{"name":"龙岩市","latitude":34.9626,"longitude":105.046,"districts":[{"name":"新罗区","latitude":34.9626,"longitude":105.046},{"name":"永定区","latitude":34.9626,"longitude":105.046},{"name":"长汀县","latitude":34.9626,"longitude":105.046},{"name":"上杭县","latitude":34.9626,"longitude":105.046},{"name":"武平县","latitude":34.9626,"longitude":105.046},{"name":"连城县","latitude":34.9626,"longitude":105.046},{"name":"漳平市","latitude":34.9626,"longitude":105.046}]},{"name":"宁德市","latitude":35.0282,"longitude":104.9538,"districts":[{"name":"蕉城区","latitude":35.0282,"longitude":104.9538},{"name":"霞浦县","latitude":35.0282,"longitude":104.9538},{"name":"古田县","latitude":35.0282,"longitude":104.9538},{"name":"屏南县","latitude":35.0282,"longitude":104.9538},{"name":"寿宁县","latitude":35.0282,"longitude":104.9538},{"name":"周宁县","latitude":35.0282,"longitude":104.9538},{"name":"柘荣县","latitude":35.0282,"longitude":104.9538},{"name":"福安市","latitude":35.0282,"longitude":104.9538},{"name":"福鼎市","latitude":35.0282,"longitude":104.9538}]}]},{"name":"江西省","timezone":"Asia/Shanghai","cities":[{"name":"南昌市","latitude":34.9928,"longitude":105.0606,"districts":[{"name":"东湖区","latitude":34.9928,"longitude":105.0606},{"name":"西湖区","latitude":34.9928,"longitude":105.0606},{"name":"青云谱区","latitude":34.9928,"longitude":105.0606},{"name":"青山湖区","latitude":34.9928,"longitude":105.0606},{"name":"新建区","latitude":34.9928,"longitude":105.0606},{"name":"红谷滩区","latitude":34.9928,"longitude":105.0606},{"name":"南昌县","latitude":34.9928,"longitude":105.0606},{"name":"安义县","latitude":34.9928,"longitude":105.0606},{"name":"进贤县","latitude":34.9928,"longitude":105.0606}]},{"name":"景德镇市","latitude":34.9644,"longitude":104.9768,"districts":[{"name":"昌江区","latitude":34.9644,"longitude":104.9768},{"name":"珠山区","latitude":34.9644,"longitude":104.9768},{"name":"浮梁县","latitude":34.9644,"longitude":104.9768},{"name":"乐平市","latitude":34.9644,"longitude":104.9768}]},{"name":"萍乡市","latitude":35.044,"longitude":104.9552,"districts":[{"name":"安源区","latitude":35.044,"longitude":104.9552},{"name":"湘东区","latitude":35.044,"longitude":104.9552},{"name":"莲花县","latitude":35.044,"longitude":104.9552},{"name":"上栗县","latitude":35.044,"longitude":104.9552},{"name":"芦溪县","latitude":35.044,"longitude":104.9552}]},{"name":"九江市","latitude":34.9612,"longitude":104.9824,"districts":[{"name":"濂溪区","latitude":34.9612,"longitude":104.9824},{"name":"浔阳区","latitude":34.9612,"longitude":104.9824},{"name":"柴桑区","latitude":34.9612,"longitude":104.9824},{"name":"武宁县","latitude":34.9612,"longitude":104.9824},{"name":"修水县","latitude":34.9612,"longitude":104.9824},{"name":"永修县","latitude":34.9612,"longitude":104.9824},{"name":"德安县","latitude":34.9612,"longitude":104.9824},{"name":"都昌县","latitude":34.9612,"longitude":104.9824},{"name":"湖口县","latitude":34.9612,"longitude":104.9824},{"name":"彭泽县","latitude":34.9612,"longitude":104.9824},{"name":"瑞昌市","latitude":34.9612,"longitude":104.9824},{"name":"共青城市","latitude":34.9612,"longitude":104.9824},{"name":"庐山市","latitude":34.9612,"longitude":104.9824}]},{"name":"新余市","latitude":34.9266,"longitude":104.9318,"districts":[{"name":"渝水区","latitude":34.9266,"longitude":104.9318},{"name":"分宜县","latitude":34.9266,"longitude":104.9318}]},{"name":"鹰潭市","latitude":34.9062,"longitude":104.9554,"districts":[{"name":"月湖区","latitude":34.9062,"longitude":104.9554},{"name":"余江区","latitude":34.9062,"longitude":104.9554},{"name":"贵溪市","latitude":34.9062,"longitude":104.9554}]},{"name":"赣州市","latitude":34.9124,"longitude":104.9782,"districts":[{"name":"章贡区","latitude":34.9124,"longitude":104.9782},{"name":"南康区","latitude":34.9124,"longitude":104.9782},{"name":"赣县区","latitude":34.9124,"longitude":104.9782},{"name":"信丰县","latitude":34.9124,"longitude":104.9782},{"name":"大余县","latitude":34.9124,"longitude":104.9782},{"name":"上犹县","latitude":34.9124,"longitude":104.9782},{"name":"崇义县","latitude":34.9124,"longitude":104.9782},{"name":"安远县","latitude":34.9124,"longitude":104.9782},{"name":"定南县","latitude":34.9124,"longitude":104.9782},{"name":"全南县","latitude":34.9124,"longitude":104.9782},{"name":"宁都县","latitude":34.9124,"longitude":104.9782},{"name":"于都县","latitude":34.9124,"longitude":104.9782},{"name":"兴国县","latitude":34.9124,"longitude":104.9782},{"name":"会昌县","latitude":34.9124,"longitude":104.9782},{"name":"寻乌县","latitude":34.9124,"longitude":104.9782},{"name":"石城县","latitude":34.9124,"longitude":104.9782},{"name":"瑞金市","latitude":34.9124,"longitude":104.9782},{"name":"龙南市","latitude":34.9124,"longitude":104.9782}]},{"name":"吉安市","latitude":35.079,"longitude":105.0276,"districts":[{"name":"吉州区","latitude":35.079,"longitude":105.0276},{"name":"青原区","latitude":35.079,"longitude":105.0276},{"name":"吉安县","latitude":35.079,"longitude":105.0276},{"name":"吉水县","latitude":35.079,"longitude":105.0276},{"name":"峡江县","latitude":35.079,"longitude":105.0276},{"name":"新干县","latitude":35.079,"longitude":105.0276},{"name":"永丰县","latitude":35.079,"longitude":105.0276},{"name":"泰和县","latitude":35.079,"longitude":105.0276},{"name":"遂川县","latitude":35.079,"longitude":105.0276},{"name":"万安县","latitude":35.079,"longitude":105.0276},{"name":"安福县","latitude":35.079,"longitude":105.0276},{"name":"永新县","latitude":35.079,"longitude":105.0276},{"name":"井冈山市","latitude":35.079,"longitude":105.0276}]},{"name":"宜春市","latitude":34.9312,"longitude":104.9888,"districts":[{"name":"袁州区","latitude":34.9312,"longitude":104.9888},{"name":"奉新县","latitude":34.9312,"longitude":104.9888},{"name":"万载县","latitude":34.9312,"longitude":104.9888},{"name":"上高县","latitude":34.9312,"longitude":104.9888},{"name":"宜丰县","latitude":34.9312,"longitude":104.9888},{"name":"靖安县","latitude":34.9312,"longitude":104.9888},{"name":"铜鼓县","latitude":34.9312,"longitude":104.9888},{"name":"丰城市","latitude":34.9312,"longitude":104.9888},{"name":"樟树市","latitude":34.9312,"longitude":104.9888},{"name":"高安市","latitude":34.9312,"longitude":104.9888}]},{"name":"抚州市","latitude":34.9246,"longitude":104.9948,"districts":[{"name":"临川区","latitude":34.9246,"longitude":104.9948},{"name":"东乡区","latitude":34.9246,"longitude":104.9948},{"name":"南城县","latitude":34.9246,"longitude":104.9948},{"name":"黎川县","latitude":34.9246,"longitude":104.9948},{"name":"南丰县","latitude":34.9246,"longitude":104.9948},{"name":"崇仁县","latitude":34.9246,"longitude":104.9948},{"name":"乐安县","latitude":34.9246,"longitude":104.9948},{"name":"宜黄县","latitude":34.9246,"longitude":104.9948},{"name":"金溪县","latitude":34.9246,"longitude":104.9948},{"name":"资溪县","latitude":34.9246,"longitude":104.9948},{"name":"广昌县","latitude":34.9246,"longitude":104.9948}]},{"name":"上饶市","latitude":34.9598,"longitude":105.0644,"districts":[{"name":"信州区","latitude":34.9598,"longitude":105.0644},{"name":"广丰区","latitude":34.9598,"longitude":105.0644},{"name":"广信区","latitude":34.9598,"longitude":105.0644},{"name":"玉山县","latitude":34.9598,"longitude":105.0644},{"name":"铅山县","latitude":34.9598,"longitude":105.0644},{"name":"横峰县","latitude":34.9598,"longitude":105.0644},{"name":"弋阳县","latitude":34.9598,"longitude":105.0644},{"name":"余干县","latitude":34.9598,"longitude":105.0644},{"name":"鄱阳县","latitude":34.9598,"longitude":105.0644},{"name":"万年县","latitude":34.9598,"longitude":105.0644},{"name":"婺源县","latitude":34.9598,"longitude":105.0644},{"name":"德兴市","latitude":34.9598,"longitude":105.0644}]}]},{"name":"山东省","timezone":"Asia/Shanghai","cities":[{"name":"济南市","latitude":34.9998,"longitude":105.097,"districts":[{"name":"历下区","latitude":34.9998,"longitude":105.097},{"name":"市中区","latitude":34.9998,"longitude":105.097},{"name":"槐荫区","latitude":34.9998,"longitude":105.097},{"name":"天桥区","latitude":34.9998,"longitude":105.097},{"name":"历城区","latitude":34.9998,"longitude":105.097},{"name":"长清区","latitude":34.9998,"longitude":105.097},{"name":"章丘区","latitude":34.9998,"longitude":105.097},{"name":"济阳区","latitude":34.9998,"longitude":105.097},{"name":"莱芜区","latitude":34.9998,"longitude":105.097},{"name":"钢城区","latitude":34.9998,"longitude":105.097},{"name":"平阴县","latitude":34.9998,"longitude":105.097},{"name":"商河县","latitude":34.9998,"longitude":105.097},{"name":"济南高新技术产业开发区","latitude":34.9998,"longitude":105.097}]},{"name":"青岛市","latitude":35.0706,"longitude":104.9978,"districts":[{"name":"市南区","latitude":35.0706,"longitude":104.9978},{"name":"市北区","latitude":35.0706,"longitude":104.9978},{"name":"黄岛区","latitude":35.0706,"longitude":104.9978},{"name":"崂山区","latitude":35.0706,"longitude":104.9978},{"name":"李沧区","latitude":35.0706,"longitude":104.9978},{"name":"城阳区","latitude":35.0706,"longitude":104.9978},{"name":"即墨区","latitude":35.0706,"longitude":104.9978},{"name":"胶州市","latitude":35.0706,"longitude":104.9978},{"name":"平度市","latitude":35.0706,"longitude":104.9978},{"name":"莱西市","latitude":35.0706,"longitude":104.9978}]},{"name":"淄博市","latitude":35.0588,"longitude":105.0942,"districts":[{"name":"淄川区","latitude":35.0588,"longitude":105.0942},{"name":"张店区","latitude":35.0588,"longitude":105.0942},{"name":"博山区","latitude":35.0588,"longitude":105.0942},{"name":"临淄区","latitude":35.0588,"longitude":105.0942},{"name":"周村区","latitude":35.0588,"longitude":105.0942},{"name":"桓台县","latitude":35.0588,"longitude":105.0942},{"name":"高青县","latitude":35.0588,"longitude":105.0942},{"name":"沂源县","latitude":35.0588,"longitude":105.0942}]},{"name":"枣庄市","latitude":35.028,"longitude":105.0364,"districts":[{"name":"市中区","latitude":35.028,"longitude":105.0364},{"name":"薛城区","latitude":35.028,"longitude":105.0364},{"name":"峄城区","latitude":35.028,"longitude":105.0364},{"name":"台儿庄区","latitude":35.028,"longitude":105.0364},{"name":"山亭区","latitude":35.028,"longitude":105.0364},{"name":"滕州市","latitude":35.028,"longitude":105.0364}]},{"name":"东营市","latitude":34.9902,"longitude":104.997,"districts":[{"name":"东营区","latitude":34.9902,"longitude":104.997},{"name":"河口区","latitude":34.9902,"longitude":104.997},{"name":"垦利区","latitude":34.9902,"longitude":104.997},{"name":"利津县","latitude":34.9902,"longitude":104.997},{"name":"广饶县","latitude":34.9902,"longitude":104.997},{"name":"东营经济技术开发区","latitude":34.9902,"longitude":104.997},{"name":"东营港经济开发区","latitude":34.9902,"longitude":104.997}]},{"name":"烟台市","latitude":34.9164,"longitude":105.0194,"districts":[{"name":"芝罘区","latitude":34.9164,"longitude":105.0194},{"name":"福山区","latitude":34.9164,"longitude":105.0194},{"name":"牟平区","latitude":34.9164,"longitude":105.0194},{"name":"莱山区","latitude":34.9164,"longitude":105.0194},{"name":"蓬莱区","latitude":34.9164,"longitude":105.0194},{"name":"烟台高新技术产业开发区","latitude":34.9164,"longitude":105.0194},{"name":"烟台经济技术开发区","latitude":34.9164,"longitude":105.0194},{"name":"龙口市","latitude":34.9164,"longitude":105.0194},{"name":"莱阳市","latitude":34.9164,"longitude":105.0194},{"name":"莱州市","latitude":34.9164,"longitude":105.0194},{"name":"招远市","latitude":34.9164,"longitude":105.0194},{"name":"栖霞市","latitude":34.9164,"longitude":105.0194},{"name":"海阳市","latitude":34.9164,"longitude":105.0194}]},{"name":"潍坊市","latitude":35.0458,"longitude":104.9036,"districts":[{"name":"潍城区","latitude":35.0458,"longitude":104.9036},{"name":"寒亭区","latitude":35.0458,"longitude":104.9036},{"name":"坊子区","latitude":35.0458,"longitude":104.9036},{"name":"奎文区","latitude":35.0458,"longitude":104.9036},{"name":"临朐县","latitude":35.0458,"longitude":104.9036},{"name":"昌乐县","latitude":35.0458,"longitude":104.9036},{"name":"潍坊滨海经济技术开发区","latitude":35.0458,"longitude":104.9036},{"name":"青州市","latitude":35.0458,"longitude":104.9036},{"name":"诸城市","latitude":35.0458,"longitude":104.9036},{"name":"寿光市","latitude":35.0458,"longitude":104.9036},{"name":"安丘市","latitude":35.0458,"longitude":104.9036},{"name":"高密市","latitude":35.0458,"longitude":104.9036},{"name":"昌邑市","latitude":35.0458,"longitude":104.9036}]},{"name":"济宁市","latitude":34.9542,"longitude":104.9918,"districts":[{"name":"任城区","latitude":34.9542,"longitude":104.9918},{"name":"兖州区","latitude":34.9542,"longitude":104.9918},{"name":"微山县","latitude":34.9542,"longitude":104.9918},{"name":"鱼台县","latitude":34.9542,"longitude":104.9918},{"name":"金乡县","latitude":34.9542,"longitude":104.9918},{"name":"嘉祥县","latitude":34.9542,"longitude":104.9918},{"name":"汶上县","latitude":34.9542,"longitude":104.9918},{"name":"泗水县","latitude":34.9542,"longitude":104.9918},{"name":"梁山县","latitude":34.9542,"longitude":104.9918},{"name":"济宁高新技术产业开发区","latitude":34.9542,"longitude":104.9918},{"name":"曲阜市","latitude":34.9542,"longitude":104.9918},{"name":"邹城市","latitude":34.9542,"longitude":104.9918}]},{"name":"泰安市","latitude":35.0406,"longitude":104.959,"districts":[{"name":"泰山区","latitude":35.0406,"longitude":104.959},{"name":"岱岳区","latitude":35.0406,"longitude":104.959},{"name":"宁阳县","latitude":35.0406,"longitude":104.959},{"name":"东平县","latitude":35.0406,"longitude":104.959},{"name":"新泰市","latitude":35.0406,"longitude":104.959},{"name":"肥城市","latitude":35.0406,"longitude":104.959}]},{"name":"威海市","latitude":35.0194,"longitude":104.9828,"districts":[{"name":"环翠区","latitude":35.0194,"longitude":104.9828},{"name":"文登区","latitude":35.0194,"longitude":104.9828},{"name":"威海火炬高技术产业开发区","latitude":35.0194,"longitude":104.9828},{"name":"威海经济技术开发区","latitude":35.0194,"longitude":104.9828},{"name":"威海临港经济技术开发区","latitude":35.0194,"longitude":104.9828},{"name":"荣成市","latitude":35.0194,"longitude":104.9828},{"name":"乳山市","latitude":35.0194,"longitude":104.9828}]},{"name":"日照市","latitude":35.0554,"longitude":104.9292,"districts":[{"name":"东港区","latitude":35.0554,"longitude":104.9292},{"name":"岚山区","latitude":35.0554,"longitude":104.9292},{"name":"五莲县","latitude":35.0554,"longitude":104.9292},{"name":"莒县","latitude":35.0554,"longitude":104.9292},{"name":"日照经济技术开发区","latitude":35.0554,"longitude":104.9292}]},{"name":"临沂市","latitude":34.9908,"longitude":105.0162,"districts":[{"name":"兰山区","latitude":34.9908,"longitude":105.0162},{"name":"罗庄区","latitude":34.9908,"longitude":105.0162},{"name":"河东区","latitude":34.9908,"longitude":105.0162},{"name":"沂南县","latitude":34.9908,"longitude":105.0162},{"name":"郯城县","latitude":34.9908,"longitude":105.0162},{"name":"沂水县","latitude":34.9908,"longitude":105.0162},{"name":"兰陵县","latitude":34.9908,"longitude":105.0162},{"name":"费县","latitude":34.9908,"longitude":105.0162},{"name":"平邑县","latitude":34.9908,"longitude":105.0162},{"name":"莒南县","latitude":34.9908,"longitude":105.0162},{"name":"蒙阴县","latitude":34.9908,"longitude":105.0162},{"name":"临沭县","latitude":34.9908,"longitude":105.0162},{"name":"临沂高新技术产业开发区","latitude":34.9908,"longitude":105.0162}]},{"name":"德州市","latitude":35.0118,"longitude":104.916,"districts":[{"name":"德城区","latitude":35.0118,"longitude":104.916},{"name":"陵城区","latitude":35.0118,"longitude":104.916},{"name":"宁津县","latitude":35.0118,"longitude":104.916},{"name":"庆云县","latitude":35.0118,"longitude":104.916},{"name":"临邑县","latitude":35.0118,"longitude":104.916},{"name":"齐河县","latitude":35.0118,"longitude":104.916},{"name":"平原县","latitude":35.0118,"longitude":104.916},{"name":"夏津县","latitude":35.0118,"longitude":104.916},{"name":"武城县","latitude":35.0118,"longitude":104.916},{"name":"德州天衢新区","latitude":35.0118,"longitude":104.916},{"name":"乐陵市","latitude":35.0118,"longitude":104.916},{"name":"禹城市","latitude":35.0118,"longitude":104.916}]},{"name":"聊城市","latitude":35.014,"longitude":105.0008,"districts":[{"name":"东昌府区","latitude":35.014,"longitude":105.0008},{"name":"茌平区","latitude":35.014,"longitude":105.0008},{"name":"阳谷县","latitude":35.014,"longitude":105.0008},{"name":"莘县","latitude":35.014,"longitude":105.0008},{"name":"东阿县","latitude":35.014,"longitude":105.0008},{"name":"冠县","latitude":35.014,"longitude":105.0008},{"name":"高唐县","latitude":35.014,"longitude":105.0008},{"name":"临清市","latitude":35.014,"longitude":105.0008}]},{"name":"滨州市","latitude":34.928,"longitude":104.926,"districts":[{"name":"滨城区","latitude":34.928,"longitude":104.926},{"name":"沾化区","latitude":34.928,"longitude":104.926},{"name":"惠民县","latitude":34.928,"longitude":104.926},{"name":"阳信县","latitude":34.928,"longitude":104.926},{"name":"无棣县","latitude":34.928,"longitude":104.926},{"name":"博兴县","latitude":34.928,"longitude":104.926},{"name":"邹平市","latitude":34.928,"longitude":104.926}]},{"name":"菏泽市","latitude":35.017,"longitude":104.978,"districts":[{"name":"牡丹区","latitude":35.017,"longitude":104.978},{"name":"定陶区","latitude":35.017,"longitude":104.978},{"name":"曹县","latitude":35.017,"longitude":104.978},{"name":"单县","latitude":35.017,"longitude":104.978},{"name":"成武县","latitude":35.017,"longitude":104.978},{"name":"巨野县","latitude":35.017,"longitude":104.978},{"name":"郓城县","latitude":35.017,"longitude":104.978},{"name":"鄄城县","latitude":35.017,"longitude":104.978},{"name":"东明县","latitude":35.017,"longitude":104.978},{"name":"菏泽经济技术开发区","latitude":35.017,"longitude":104.978},{"name":"菏泽高新技术开发区","latitude":35.017,"longitude":104.978}]}]},{"name":"河南省","timezone":"Asia/Shanghai","cities":[{"name":"郑州市","latitude":34.9662,"longitude":104.9676,"districts":[{"name":"中原区","latitude":34.9662,"longitude":104.9676},{"name":"二七区","latitude":34.9662,"longitude":104.9676},{"name":"管城回族区","latitude":34.9662,"longitude":104.9676},{"name":"金水区","latitude":34.9662,"longitude":104.9676},{"name":"上街区","latitude":34.9662,"longitude":104.9676},{"name":"惠济区","latitude":34.9662,"longitude":104.9676},{"name":"中牟县","latitude":34.9662,"longitude":104.9676},{"name":"郑州经济技术开发区","latitude":34.9662,"longitude":104.9676},{"name":"郑州高新技术产业开发区","latitude":34.9662,"longitude":104.9676},{"name":"郑州航空港经济综合实验区","latitude":34.9662,"longitude":104.9676},{"name":"巩义市","latitude":34.9662,"longitude":104.9676},{"name":"荥阳市","latitude":34.9662,"longitude":104.9676},{"name":"新密市","latitude":34.9662,"longitude":104.9676},{"name":"新郑市","latitude":34.9662,"longitude":104.9676},{"name":"登封市","latitude":34.9662,"longitude":104.9676}]},{"name":"开封市","latitude":34.9848,"longitude":104.9708,"districts":[{"name":"龙亭区","latitude":34.9848,"longitude":104.9708},{"name":"顺河回族区","latitude":34.9848,"longitude":104.9708},{"name":"鼓楼区","latitude":34.9848,"longitude":104.9708},{"name":"禹王台区","latitude":34.9848,"longitude":104.9708},{"name":"祥符区","latitude":34.9848,"longitude":104.9708},{"name":"杞县","latitude":34.9848,"longitude":104.9708},{"name":"通许县","latitude":34.9848,"longitude":104.9708},{"name":"尉氏县","latitude":34.9848,"longitude":104.9708},{"name":"兰考县","latitude":34.9848,"longitude":104.9708}]},{"name":"洛阳市","latitude":34.9654,"longitude":104.9756,"districts":[{"name":"老城区","latitude":34.9654,"longitude":104.9756},{"name":"西工区","latitude":34.9654,"longitude":104.9756},{"name":"瀍河回族区","latitude":34.9654,"longitude":104.9756},{"name":"涧西区","latitude":34.9654,"longitude":104.9756},{"name":"偃师区","latitude":34.9654,"longitude":104.9756},{"name":"孟津区","latitude":34.9654,"longitude":104.9756},{"name":"洛龙区","latitude":34.9654,"longitude":104.9756},{"name":"新安县","latitude":34.9654,"longitude":104.9756},{"name":"栾川县","latitude":34.9654,"longitude":104.9756},{"name":"嵩县","latitude":34.9654,"longitude":104.9756},{"name":"汝阳县","latitude":34.9654,"longitude":104.9756},{"name":"宜阳县","latitude":34.9654,"longitude":104.9756},{"name":"洛宁县","latitude":34.9654,"longitude":104.9756},{"name":"伊川县","latitude":34.9654,"longitude":104.9756},{"name":"洛阳高新技术产业开发区","latitude":34.9654,"longitude":104.9756}]},{"name":"平顶山市","latitude":34.927,"longitude":104.9506,"districts":[{"name":"新华区","latitude":34.927,"longitude":104.9506},{"name":"卫东区","latitude":34.927,"longitude":104.9506},{"name":"石龙区","latitude":34.927,"longitude":104.9506},{"name":"湛河区","latitude":34.927,"longitude":104.9506},{"name":"宝丰县","latitude":34.927,"longitude":104.9506},{"name":"叶县","latitude":34.927,"longitude":104.9506},{"name":"鲁山县","latitude":34.927,"longitude":104.9506},{"name":"郏县","latitude":34.927,"longitude":104.9506},{"name":"平顶山高新技术产业开发区","latitude":34.927,"longitude":104.9506},{"name":"平顶山市城乡一体化示范区","latitude":34.927,"longitude":104.9506},{"name":"舞钢市","latitude":34.927,"longitude":104.9506},{"name":"汝州市","latitude":34.927,"longitude":104.9506}]},{"name":"安阳市","latitude":35.0468,"longitude":104.9864,"districts":[{"name":"文峰区","latitude":35.0468,"longitude":104.9864},{"name":"北关区","latitude":35.0468,"longitude":104.9864},{"name":"殷都区","latitude":35.0468,"longitude":104.9864},{"name":"龙安区","latitude":35.0468,"longitude":104.9864},{"name":"安阳县","latitude":35.0468,"longitude":104.9864},{"name":"汤阴县","latitude":35.0468,"longitude":104.9864},{"name":"滑县","latitude":35.0468,"longitude":104.9864},{"name":"内黄县","latitude":35.0468,"longitude":104.9864},{"name":"安阳高新技术产业开发区","latitude":35.0468,"longitude":104.9864},{"name":"林州市","latitude":35.0468,"longitude":104.9864}]},{"name":"鹤壁市","latitude":35.072,"longitude":104.9614,"districts":[{"name":"鹤山区","latitude":35.072,"longitude":104.9614},{"name":"山城区","latitude":35.072,"longitude":104.9614},{"name":"淇滨区","latitude":35.072,"longitude":104.9614},{"name":"浚县","latitude":35.072,"longitude":104.9614},{"name":"淇县","latitude":35.072,"longitude":104.9614},{"name":"鹤壁经济技术开发区","latitude":35.072,"longitude":104.9614}]},{"name":"新乡市","latitude":34.9642,"longitude":105.097,"districts":[{"name":"红旗区","latitude":34.9642,"longitude":105.097},{"name":"卫滨区","latitude":34.9642,"longitude":105.097},{"name":"凤泉区","latitude":34.9642,"longitude":105.097},{"name":"牧野区","latitude":34.9642,"longitude":105.097},{"name":"新乡县","latitude":34.9642,"longitude":105.097},{"name":"获嘉县","latitude":34.9642,"longitude":105.097},{"name":"原阳县","latitude":34.9642,"longitude":105.097},{"name":"延津县","latitude":34.9642,"longitude":105.097},{"name":"封丘县","latitude":34.9642,"longitude":105.097},{"name":"新乡高新技术产业开发区","latitude":34.9642,"longitude":105.097},{"name":"新乡经济技术开发区","latitude":34.9642,"longitude":105.097},{"name":"新乡市平原城乡一体化示范区","latitude":34.9642,"longitude":105.097},{"name":"卫辉市","latitude":34.9642,"longitude":105.097},{"name":"辉县市","latitude":34.9642,"longitude":105.097},{"name":"长垣市","latitude":34.9642,"longitude":105.097}]},{"name":"焦作市","latitude":35.0438,"longitude":105.062,"districts":[{"name":"解放区","latitude":35.0438,"longitude":105.062},{"name":"中站区","latitude":35.0438,"longitude":105.062},{"name":"马村区","latitude":35.0438,"longitude":105.062},{"name":"山阳区","latitude":35.0438,"longitude":105.062},{"name":"修武县","latitude":35.0438,"longitude":105.062},{"name":"博爱县","latitude":35.0438,"longitude":105.062},{"name":"武陟县","latitude":35.0438,"longitude":105.062},{"name":"温县","latitude":35.0438,"longitude":105.062},{"name":"焦作城乡一体化示范区","latitude":35.0438,"longitude":105.062},{"name":"沁阳市","latitude":35.0438,"longitude":105.062},{"name":"孟州市","latitude":35.0438,"longitude":105.062}]},{"name":"濮阳市","latitude":35.0906,"longitude":105.038,"districts":[{"name":"华龙区","latitude":35.0906,"longitude":105.038},{"name":"清丰县","latitude":35.0906,"longitude":105.038},{"name":"南乐县","latitude":35.0906,"longitude":105.038},{"name":"范县","latitude":35.0906,"longitude":105.038},{"name":"台前县","latitude":35.0906,"longitude":105.038},{"name":"濮阳县","latitude":35.0906,"longitude":105.038},{"name":"河南濮阳工业园区","latitude":35.0906,"longitude":105.038},{"name":"濮阳经济技术开发区","latitude":35.0906,"longitude":105.038}]},{"name":"许昌市","latitude":35.0206,"longitude":105.076,"districts":[{"name":"魏都区","latitude":35.0206,"longitude":105.076},{"name":"建安区","latitude":35.0206,"longitude":105.076},{"name":"鄢陵县","latitude":35.0206,"longitude":105.076},{"name":"襄城县","latitude":35.0206,"longitude":105.076},{"name":"许昌经济技术开发区","latitude":35.0206,"longitude":105.076},{"name":"禹州市","latitude":35.0206,"longitude":105.076},{"name":"长葛市","latitude":35.0206,"longitude":105.076}]},{"name":"漯河市","latitude":35.0118,"longitude":105.0594,"districts":[{"name":"源汇区","latitude":35.0118,"longitude":105.0594},{"name":"郾城区","latitude":35.0118,"longitude":105.0594},{"name":"召陵区","latitude":35.0118,"longitude":105.0594},{"name":"舞阳县","latitude":35.0118,"longitude":105.0594},{"name":"临颍县","latitude":35.0118,"longitude":105.0594},{"name":"漯河经济技术开发区","latitude":35.0118,"longitude":105.0594}]},{"name":"三门峡市","latitude":34.918,"longitude":105.0306,"districts":[{"name":"湖滨区","latitude":34.918,"longitude":105.0306},{"name":"陕州区","latitude":34.918,"longitude":105.0306},{"name":"渑池县","latitude":34.918,"longitude":105.0306},{"name":"卢氏县","latitude":34.918,"longitude":105.0306},{"name":"河南三门峡经济开发区","latitude":34.918,"longitude":105.0306},{"name":"义马市","latitude":34.918,"longitude":105.0306},{"name":"灵宝市","latitude":34.918,"longitude":105.0306}]},{"name":"南阳市","latitude":34.9384,"longitude":104.9454,"districts":[{"name":"宛城区","latitude":34.9384,"longitude":104.9454},{"name":"卧龙区","latitude":34.9384,"longitude":104.9454},{"name":"南召县","latitude":34.9384,"longitude":104.9454},{"name":"方城县","latitude":34.9384,"longitude":104.9454},{"name":"西峡县","latitude":34.9384,"longitude":104.9454},{"name":"镇平县","latitude":34.9384,"longitude":104.9454},{"name":"内乡县","latitude":34.9384,"longitude":104.9454},{"name":"淅川县","latitude":34.9384,"longitude":104.9454},{"name":"社旗县","latitude":34.9384,"longitude":104.9454},{"name":"唐河县","latitude":34.9384,"longitude":104.9454},{"name":"新野县","latitude":34.9384,"longitude":104.9454},{"name":"桐柏县","latitude":34.9384,"longitude":104.9454},{"name":"南阳高新技术产业开发区","latitude":34.9384,"longitude":104.9454},{"name":"南阳市城乡一体化示范区","latitude":34.9384,"longitude":104.9454},{"name":"邓州市","latitude":34.9384,"longitude":104.9454}]},{"name":"商丘市","latitude":35.082,"longitude":105.0164,"districts":[{"name":"梁园区","latitude":35.082,"longitude":105.0164},{"name":"睢阳区","latitude":35.082,"longitude":105.0164},{"name":"民权县","latitude":35.082,"longitude":105.0164},{"name":"睢县","latitude":35.082,"longitude":105.0164},{"name":"宁陵县","latitude":35.082,"longitude":105.0164},{"name":"柘城县","latitude":35.082,"longitude":105.0164},{"name":"虞城县","latitude":35.082,"longitude":105.0164},{"name":"夏邑县","latitude":35.082,"longitude":105.0164},{"name":"豫东综合物流产业聚集区","latitude":35.082,"longitude":105.0164},{"name":"河南商丘经济开发区","latitude":35.082,"longitude":105.0164},{"name":"永城市","latitude":35.082,"longitude":105.0164}]},{"name":"信阳市","latitude":34.9344,"longitude":105.0916,"districts":[{"name":"浉河区","latitude":34.9344,"longitude":105.0916},{"name":"平桥区","latitude":34.9344,"longitude":105.0916},{"name":"罗山县","latitude":34.9344,"longitude":105.0916},{"name":"光山县","latitude":34.9344,"longitude":105.0916},{"name":"新县","latitude":34.9344,"longitude":105.0916},{"name":"商城县","latitude":34.9344,"longitude":105.0916},{"name":"固始县","latitude":34.9344,"longitude":105.0916},{"name":"潢川县","latitude":34.9344,"longitude":105.0916},{"name":"淮滨县","latitude":34.9344,"longitude":105.0916},{"name":"息县","latitude":34.9344,"longitude":105.0916},{"name":"信阳高新技术产业开发区","latitude":34.9344,"longitude":105.0916}]},{"name":"周口市","latitude":34.9162,"longitude":105.0454,"districts":[{"name":"川汇区","latitude":34.9162,"longitude":105.0454},{"name":"淮阳区","latitude":34.9162,"longitude":105.0454},{"name":"扶沟县","latitude":34.9162,"longitude":105.0454},{"name":"西华县","latitude":34.9162,"longitude":105.0454},{"name":"商水县","latitude":34.9162,"longitude":105.0454},{"name":"沈丘县","latitude":34.9162,"longitude":105.0454},{"name":"郸城县","latitude":34.9162,"longitude":105.0454},{"name":"太康县","latitude":34.9162,"longitude":105.0454},{"name":"鹿邑县","latitude":34.9162,"longitude":105.0454},{"name":"周口临港开发区","latitude":34.9162,"longitude":105.0454},{"name":"项城市","latitude":34.9162,"longitude":105.0454}]},{"name":"驻马店市","latitude":34.942,"longitude":105.0634,"districts":[{"name":"驿城区","latitude":34.942,"longitude":105.0634},{"name":"西平县","latitude":34.942,"longitude":105.0634},{"name":"上蔡县","latitude":34.942,"longitude":105.0634},{"name":"平舆县","latitude":34.942,"longitude":105.0634},{"name":"正阳县","latitude":34.942,"longitude":105.0634},{"name":"确山县","latitude":34.942,"longitude":105.0634},{"name":"泌阳县","latitude":34.942,"longitude":105.0634},{"name":"汝南县","latitude":34.942,"longitude":105.0634},{"name":"遂平县","latitude":34.942,"longitude":105.0634},